title,paiming,uri,lat,lng,recommend_price,hotel_address,hotel_star,hotel_city,hotel_section,price_range,avg_rating,comment_count,offical_img_uri,facility,room,gmap_lat,gmap_lng,agoda_price
台北凱達大飯店,"台北排名第 1 的超值住宿地點，共 1,200 家",https://www.tripadvisor.com.tw/Hotel_Review-g13806951-d12439218-Reviews-Caesar_Metro_Taipei-Wanhua_Taipei.html,25.093050003051758,121.5291976928711,"NT$2,816",艋舺大道167號,4.0,台北,萬華,"NT$2,691 - NT$5,908",4.0,351,https://media-cdn.tripadvisor.com/media/photo-s/11/a3/57/0d/caption.jpg,"免費高速上網 (WiFi), 游泳池, 有健身房的健身中心, 酒吧/酒廊, 機場接送, 提供上網服務的商務中心, 宴會廳, 禮賓服務, 免費網際網路, 無線網路, 公用無線網路, 網際網路, 餐廳, 提供早餐, 自助式早餐, 免費即溶咖啡, 會議室, 禁菸飯店, 乾洗服務, 洗衣服務","禁菸客房, 套房, 家庭房, 遮光窗簾, 空調設施, 客房服務, 冰箱",25.033276,121.49952,
新驛旅店 - 復興北路店,"台北排名第 2 的超值住宿地點，共 1,200 家",https://www.tripadvisor.com.tw/Hotel_Review-g13808671-d8263705-Reviews-Cityinn_Hotel_Plus_Fuxing_N_Rd_Branch-Zhongshan_District_Taipei.html,25.033275604248047,121.49951934814453,"NT$1,984",中山區復興北路338號,3.5,台北,中山區,"NT$2,258 - NT$4,547",5.0,934,https://media-cdn.tripadvisor.com/media/photo-s/0f/5a/67/42/caption.jpg,"免費停車, 免費高速上網 (WiFi), 免費即溶咖啡, 機場接送, 提供上網服務的商務中心, 禁菸飯店, 乾洗服務, 洗衣服務, 停車, 免費網際網路, 無線網路, 公用無線網路, 網際網路, 自助式洗衣","禁菸客房, 套房, 家庭房, 遮光窗簾, 空調設施, 保險箱, 冰箱, 平板電視",25.059544,121.544,
儷夏商旅 - 西門捷運館,"台北排名第 3 的超值住宿地點，共 1,200 家",https://www.tripadvisor.com.tw/Hotel_Review-g13806951-d3810028-Reviews-Muzik_Hotel_Ximen_Station_Branch-Wanhua_Taipei.html,25.05954360961914,121.54399871826172,"NT$1,422",萬華區中華路1段90號6樓 Ximending,3.0,台北,萬華,"NT$1,299 - NT$3,990",4.5,837,https://media-cdn.tripadvisor.com/media/photo-s/15/85/b3/51/caption.jpg,"免費高速上網 (WiFi), 免費網際網路, 提供早餐, 機場接送, 禮賓服務, 24 小時服務櫃台, 洗衣服務, 自助式洗衣, 無線網路, 公用無線網路, 網際網路, 計程車服務","禁菸客房, 保險箱, 迷你吧, 冰箱, 平板電視",25.04468,121.50857,
圓山大飯店,"台北排名第 4 的超值住宿地點，共 1,200 家",https://www.tripadvisor.com.tw/Hotel_Review-g13808671-d306446-Reviews-Grand_Hotel_Taipei-Zhongshan_District_Taipei.html,25.044679641723633,121.5085678100586,"NT$2,743",中山北路四段1號,4.5,台北,中山區,"NT$3,217 - NT$6,372",4.0,1257,https://media-cdn.tripadvisor.com/media/photo-s/16/9f/a0/cc/pool.jpg,"免費停車, 免費高速上網 (WiFi), 游泳池, 有健身房的健身中心, 酒吧/酒廊, 機場接送, 提供上網服務的商務中心, 會議設施, 免費網際網路, 無線網路, 公用無線網路, 網際網路, 浴缸, 室外游泳池, 餐廳, 自助式早餐, 巴士接駁服務, 宴會廳, 會議室, Spa, 禮賓服務, 禁菸飯店, 管家服務, 乾洗服務, 洗衣服務","禁菸客房, 套房, 家庭房, 空調設施, 私人陽台, 客房服務, 迷你吧, 平板電視, VIP 客房設施",25.07846,121.52624,
新驛旅店- 台北車站一館,"台北排名第 5 的超值住宿地點，共 1,200 家",https://www.tripadvisor.com.tw/Hotel_Review-g13808853-d1144583-Reviews-CityInn_Hotel_Taipei_Station_Branch_I-Zhongzheng_District_Taipei.html,25.078460693359375,121.52623748779297,"NT$1,656",中正區懷寧街7號,3.0,台北,中正區,"NT$1,856 - NT$3,371",4.5,1138,https://media-cdn.tripadvisor.com/media/photo-s/15/8d/2f/bf/caption.jpg,"免費高速上網 (WiFi), 免費即溶咖啡, 計程車服務, 行李存放, 禁菸飯店, 24 小時服務櫃台, 洗衣服務, 自助式洗衣, 免費網際網路, 無線網路, 公用無線網路, 網際網路","禁菸客房, 空調設施, 平板電視",25.046206,121.51424,"NT$3,810"
新驛旅店 - 台北車站三館,"台北排名第 6 的超值住宿地點，共 1,200 家",https://www.tripadvisor.com.tw/Hotel_Review-g13806451-d1950018-Reviews-CityInn_Hotel_Taipei_Station_Branch_III-Datong_Taipei.html,25.046205520629883,121.51423645019531,"NT$1,258",長安西路77號,3.5,台北,大同,"NT$1,639 - NT$4,516",4.5,1498,https://media-cdn.tripadvisor.com/media/photo-s/0d/b8/db/52/cityinn-hotel-taipei.jpg,"免費高速上網 (WiFi), 免費網際網路, 免費即溶咖啡, 機場接送, 行李存放, 禮賓服務, 乾洗服務, 洗衣服務, 無線網路, 網際網路, 計程車服務, 禁菸飯店, 自助式洗衣","禁菸客房, 家庭房, 空調設施, 房務, 保險箱, 冰箱, 平板電視",25.051008,121.51668,"NT$1,656"
台北花園大酒店,"台北排名第 7 的超值住宿地點，共 1,200 家",https://www.tripadvisor.com.tw/Hotel_Review-g13808853-d1224203-Reviews-Taipei_Garden_Hotel-Zhongzheng_District_Taipei.html,25.137746810913086,121.51493835449219,"NT$2,744",中正區中華路二段1號,4.5,台北,中正區,"NT$2,876 - NT$5,475",4.5,2773,https://media-cdn.tripadvisor.com/media/photo-s/09/32/1f/6c/caption.jpg,"免費停車, 免費高速上網 (WiFi), 有健身房的健身中心, 浴缸, 酒吧/酒廊, 兒童可享免費住宿, 機場接送, 提供上網服務的商務中心, 停車, 免費網際網路, 無線網路, 網際網路, 餐廳, 提供早餐, 自助式早餐, 免費即溶咖啡, 計程車服務, 會議設施, 宴會廳, 會議室, 傳真/影印, Spa, 按摩, 屋頂露台, 行李存放, 禮賓服務, 禁菸飯店, 24 小時服務櫃台, 乾洗服務, 洗衣服務, 燙衣服務","禁菸客房, 套房, 家庭房, 遮光窗簾, 空調設施, 房務, 迷你吧, 平板電視, 客房服務, 保險箱, 冰箱",25.036423,121.50684,"NT$9,715"
悠逸商旅,"台北排名第 8 的超值住宿地點，共 1,200 家",https://www.tripadvisor.com.tw/Hotel_Review-g13806879-d10541923-Reviews-UiNN_Business_Hotel-Shilin_Taipei.html,25.051008224487305,121.51667785644531,"NT$1,784",士林區承德路四段318號,3.5,台北,士林,"NT$1,980 - NT$4,052",4.5,302,https://media-cdn.tripadvisor.com/media/photo-s/0c/a7/8e/c2/uinn-business-standard.jpg,"免費停車, 免費高速上網 (WiFi), 有健身房的健身中心, 免費早餐, 機場接送, 提供上網服務的商務中心, 禁菸飯店, 乾洗服務, 免費網際網路, 無線網路, 網際網路, 餐廳, 自助式早餐, 洗衣服務","禁菸客房, 空調設施, 客房服務",25.089682,121.51819,"NT$1,258"
薆悅酒店,"台北排名第 9 的超值住宿地點，共 1,200 家",https://www.tripadvisor.com.tw/Hotel_Review-g13806951-d2527833-Reviews-Inhouse_Hotel_Heritage-Wanhua_Taipei.html,25.036422729492188,121.50684356689453,"NT$2,086",萬華區西寧南路107號,3.5,台北,萬華,"NT$2,227 - NT$4,547",4.0,491,https://media-cdn.tripadvisor.com/media/photo-s/0e/29/2f/57/inhouse-hotel-s-lobby.jpg,"免費高速上網 (WiFi), 免費網際網路, 無線網路, 免費早餐, 餐廳, 禮賓服務, 禁菸飯店, 洗衣服務, 公用無線網路, 網際網路, 提供早餐, 自助式早餐","禁菸客房, 套房, 空調設施, 冰箱, 平板電視",25.045055,121.50668,
台北美福大飯店,"台北排名第 10 的超值住宿地點，共 1,200 家",https://www.tripadvisor.com.tw/Hotel_Review-g13808671-d10161540-Reviews-Grand_Mayfull_Hotel_Taipei-Zhongshan_District_Taipei.html,25.08968162536621,121.5181884765625,"NT$6,160",中山區樂群二路55號,5.0,台北,中山區,"NT$5,970 - NT$11,784",4.5,288,https://media-cdn.tripadvisor.com/media/photo-s/11/81/79/39/lobby.jpg,"免費停車, 免費高速上網 (WiFi), 游泳池, 有健身房的健身中心, 免費早餐, 機場接送, 提供上網服務的商務中心, 會議設施, 免費網際網路, 無線網路, 公用無線網路, 網際網路, 浴缸, 桑拿, 酒吧/酒廊, 餐廳, 提供早餐, 自助式早餐, 游泳池酒吧, 游泳池畔酒吧, 巴士接駁服務, 宴會廳, 會議室, Spa, 禮賓服務, 禁菸飯店, 乾洗服務, 洗衣服務","禁菸客房, 套房, 家庭房, 空調設施, 客房服務, VIP 客房設施, 迷你吧, 冰箱",25.080359,121.5537,
台北 柔美精品商旅,"台北排名第 11 的超值住宿地點，共 1,200 家",https://www.tripadvisor.com.tw/Hotel_Review-g13808671-d1425877-Reviews-Taipei_Roumei_Boutique_Hotel-Zhongshan_District_Taipei.html,25.045055389404297,121.50668334960938,"NT$1,990",建國北路2段64巷9號,4.0,台北,中山區,"NT$2,134 - NT$3,897",4.0,387,https://media-cdn.tripadvisor.com/media/photo-s/01/8a/55/7c/vip.jpg,"免費停車, 免費高速上網 (WiFi), 有健身房的健身中心, 浴缸, 餐廳, 機場接送, 提供上網服務的商務中心, 會議室, 停車, 免費網際網路, 無線網路, 公用無線網路, 網際網路, 自助式早餐, 禮賓服務, 禁菸飯店, 乾洗服務, 洗衣服務, 自助式洗衣","禁菸客房, 套房, 空調設施, 迷你吧, 冰箱, 平板電視",25.054344,121.535995,"NT$2,112"
天成文旅-華山町,"台北排名第 12 的超值住宿地點，共 1,200 家",https://www.tripadvisor.com.tw/Hotel_Review-g13808853-d14187606-Reviews-Hua_Shan_Din_by_Cosmos_Creation-Zhongzheng_District_Taipei.html,25.080358505249023,121.55370330810547,"NT$2,353",忠孝東路二段79號,3.5,台北,中正區,"NT$2,598 - NT$4,825",4.5,125,https://media-cdn.tripadvisor.com/media/photo-s/13/8e/41/c4/getlstd-property-photo.jpg,"免費高速上網 (WiFi), 免費網際網路, 免費早餐, 酒吧/酒廊, 機場接送, 禮賓服務, 禁菸飯店, 自助式洗衣, 無線網路, 公用無線網路, 網際網路, 餐廳","禁菸客房, 空調設施",25.043379,121.53033,
路徒行旅,"台北排名第 13 的超值住宿地點，共 1,200 家",https://www.tripadvisor.com.tw/Hotel_Review-g13808853-d10125458-Reviews-Roaders_Hotel-Zhongzheng_District_Taipei.html,25.054344177246094,121.53599548339844,"NT$1,839",中正區延平南路68號 漢口街延平南路口,3.5,台北,中正區,"NT$1,794 - NT$5,103",4.5,244,https://media-cdn.tripadvisor.com/media/photo-s/0a/bf/82/a6/getlstd-property-photo.jpg,"免費高速上網 (WiFi), 免費網際網路, 有健身房的健身中心, 兒童活動 (適合兒童/家庭), 行李存放, 禁菸飯店, 洗衣服務, 自助式洗衣, 無線網路, 公用無線網路, 網際網路","禁菸客房, 套房, 家庭房, 遮光窗簾, 空調設施, 冰箱, 平板電視",25.045202,121.51032,
雀客旅館,"台北排名第 14 的超值住宿地點，共 1,200 家",https://www.tripadvisor.com.tw/Hotel_Review-g13808671-d5602542-Reviews-CHECK_inn_Taipei-Zhongshan_District_Taipei.html,25.043378829956055,121.53032684326172,"NT$1,740",松江路253號,3.0,台北,中山區,"NT$2,134 - NT$3,681",4.5,543,https://media-cdn.tripadvisor.com/media/photo-s/07/41/a8/35/caption.jpg,"免費停車, 停車, 免費高速上網 (WiFi), 餐廳, 禮賓服務, 禁菸飯店, 乾洗服務, 洗衣服務, 免費網際網路, 無線網路, 公用無線網路, 網際網路, 提供早餐, 自助式洗衣","禁菸客房, 空調設施, 冰箱, 平板電視",25.059462,121.53338,
蜂巢旅店,"台北排名第 15 的超值住宿地點，共 1,200 家",https://www.tripadvisor.com.tw/Hotel_Review-g13806451-d4134607-Reviews-Bee_House_Taipei_Station_Branch-Datong_Taipei.html,25.045202255249023,121.51032257080078,"NT$2,118",大同區太原路57號,3.5,台北,大同,"NT$1,887 - NT$4,052",4.5,1546,https://media-cdn.tripadvisor.com/media/photo-s/09/b8/ff/b0/deluxe-triple-room-single-beds--v.jpg,"免費高速上網 (WiFi), 免費網際網路, 餐廳, 提供早餐, 禮賓服務, 禁菸飯店, 洗衣服務, 自助式洗衣, 無線網路, 公用無線網路, 網際網路","禁菸客房, 家庭房, 空調設施, 房務, 保險箱, 冰箱, 平板電視",25.051022,121.51546,"NT$1,908"
老爺會館台北南西- 捷運中山站,"台北排名第 16 的超值住宿地點，共 1,200 家",https://www.tripadvisor.com.tw/Hotel_Review-g13808671-d308595-Reviews-Royal_Inn_Taipei_Nanxi_MRT_Zhongshan_Station-Zhongshan_District_Taipei.html,25.05946159362793,121.53337860107422,"NT$2,664",南京西路1號 8樓 (鄰近台北捷運中山站),3.0,台北,中山區,"NT$2,722 - NT$5,413",4.0,417,https://media-cdn.tripadvisor.com/media/photo-s/0f/a5/48/79/caption.jpg,"免費高速上網 (WiFi), 免費網際網路, 免費早餐, 會議室, 禮賓服務, 禁菸飯店, 乾洗服務, 自助式洗衣, 無線網路, 網際網路, 餐廳, 自助式早餐","禁菸客房, 套房, 家庭房, 空調設施, 冰箱, 平板電視",25.052443,121.52197,
台北燦路都飯店,"台北排名第 17 的超值住宿地點，共 1,200 家",https://www.tripadvisor.com.tw/Hotel_Review-g13808671-d478062-Reviews-Hotel_Sunroute_Taipei-Zhongshan_District_Taipei.html,25.051021575927734,121.51545715332031,"NT$1,664",中山區民權東路一段9號,3.0,台北,中山區,"NT$2,103 - NT$4,083",4.0,456,https://media-cdn.tripadvisor.com/media/photo-s/16/a7/4c/83/caption.jpg,"免費高速上網 (WiFi), 免費網際網路, 餐廳, 提供早餐, 機場接送, 禁菸飯店, 乾洗服務, 洗衣服務, 無線網路, 公用無線網路, 網際網路","禁菸客房, 空調設施, 保險箱, 冰箱, 平板電視",25.063047,121.52313,
伸適商旅,"台北排名第 18 的超值住宿地點，共 1,200 家",https://www.tripadvisor.com.tw/Hotel_Review-g13808671-d1218729-Reviews-Hotel_Sense-Zhongshan_District_Taipei.html,25.05244255065918,121.52197265625,"NT$2,010",中山區林森北路477號,4.0,台北,中山區,"NT$2,505 - NT$5,042",4.0,199,https://media-cdn.tripadvisor.com/media/photo-s/0b/c2/f1/e2/deluxe-room.jpg,"免費停車, 免費高速上網 (WiFi), 有健身房的健身中心, 餐廳, 提供上網服務的商務中心, 會議室, 禮賓服務, 禁菸飯店, 停車, 免費網際網路, 無線網路, 網際網路, 自助式早餐, 乾洗服務, 洗衣服務","禁菸客房, 家庭房, 空調設施, 迷你吧, 平板電視",25.060911,121.52573,
福泰桔子商務旅館 西門店,"台北排名第 19 的超值住宿地點，共 1,200 家",https://www.tripadvisor.com.tw/Hotel_Review-g13806951-d3862269-Reviews-Orange_Hotel_Ximen_Taipei-Wanhua_Taipei.html,25.063047409057617,121.52313232421875,"NT$1,877",萬華區中華路一段166號之2,2.5,台北,萬華,"NT$1,980 - NT$3,557",4.5,413,https://media-cdn.tripadvisor.com/media/photo-s/0e/77/a9/73/caption.jpg,"免費高速上網 (WiFi), 免費網際網路, 無線網路, 公用無線網路, 網際網路, 免費早餐, 自助式早餐, 禁菸飯店","禁菸客房, 空調設施, 保險箱, 平板電視",25.041248,121.50778,
台北西門町意舍,"台北排名第 20 的超值住宿地點，共 1,200 家",https://www.tripadvisor.com.tw/Hotel_Review-g13806951-d2347774-Reviews-Amba_Taipei_Ximending-Wanhua_Taipei.html,25.060911178588867,121.52572631835938,"NT$1,877",武昌街二段77號1樓、5樓-10樓,4.0,台北,萬華,"NT$2,846 - NT$5,289",4.5,941,https://media-cdn.tripadvisor.com/media/photo-s/12/cf/10/21/newly-refurbished-medium.jpg,"現場付費公共停車場, 免費高速上網 (WiFi), 酒吧/酒廊, 嬰兒推車, 包車, 傳真/影印, 行李存放, 禮賓服務, 免費網際網路, 無線網路, 公用無線網路, 網際網路, 咖啡館, 餐廳, 自助式早餐, 免費即溶咖啡, 免費提供茶, 計程車服務, 禁菸飯店, 雨傘, 24 小時服務櫃台, 烘衣機, 乾洗服務, 洗衣服務, 自助式洗衣, 洗衣機","禁菸客房, 家庭房, 空調設施, 房務, 衣櫃/壁櫥, 迷你吧, 第四台/衛星電視, 步入式淋浴間, 瓶裝水, 衣架, 喚醒服務/鬧鐘, 平板電視, 免費衛浴用品, 吹風機",25.045048,121.50572,"NT$2,010"
喜來登大飯店,"台北排名第 21 的超值住宿地點，共 1,200 家",https://www.tripadvisor.com.tw/Hotel_Review-g13808853-d301805-Reviews-Sheraton_Grand_Taipei_Hotel-Zhongzheng_District_Taipei.html,25.041248321533203,121.50778198242188,"NT$5,567",忠孝東路一段12號,4.5,台北,中正區,"NT$6,186 - NT$11,042",4.0,1713,https://media-cdn.tripadvisor.com/media/photo-s/18/00/24/75/lobby.jpg,"停車, 免費高速上網 (WiFi), 游泳池, 有健身房的健身中心, 酒吧/酒廊, 機場接送, 提供上網服務的商務中心, 會議設施, 免費網際網路, 無線網路, 網際網路, 浴缸, 室外游泳池, 餐廳, 提供早餐, 自助式早餐, 宴會廳, 會議室, Spa, 禮賓服務, 禁菸飯店, 乾洗服務, 洗衣服務","禁菸客房, 套房, 家庭房, 空調設施, 客房服務, 迷你吧, 冰箱, 平板電視",25.044847,121.52216,
福泰桔子商務旅館 - 開封店,"台北排名第 22 的超值住宿地點，共 1,200 家",https://www.tripadvisor.com.tw/Hotel_Review-g13808853-d1020693-Reviews-Orange_Hotel_Kaifong-Zhongzheng_District_Taipei.html,25.045047760009766,121.50572204589844,"NT$1,632",中正區開封街一段41號,3.0,台北,中正區,"NT$1,825 - NT$3,433",4.0,224,https://media-cdn.tripadvisor.com/media/photo-s/0d/fe/dc/99/caption.jpg,"免費高速上網 (WiFi), 免費網際網路, 無線網路, 公用無線網路, 網際網路, 提供早餐, 禁菸飯店","禁菸客房, 套房, 空調設施, 冰箱, 平板電視",25.045952,121.51254,
薆悅精品,"台北排名第 23 的超值住宿地點，共 1,200 家",https://www.tripadvisor.com.tw/Hotel_Review-g13806951-d8700927-Reviews-Inhouse_Boutique-Wanhua_Taipei.html,25.04484748840332,121.52216339111328,"NT$2,279",萬華區成都路27巷8號,4.0,台北,萬華,"NT$2,907 - NT$5,444",4.5,155,https://media-cdn.tripadvisor.com/media/photo-s/0e/29/22/f0/caption.jpg,"免費高速上網 (WiFi), 免費網際網路, 無線網路, 公用無線網路, 免費早餐, 酒吧/酒廊, 餐廳, 禁菸飯店, 網際網路, 提供早餐","禁菸客房, 套房, 空調設施, 冰箱, 平板電視",25.043077,121.50677,
東吳大飯店,"台北排名第 24 的超值住宿地點，共 1,200 家",https://www.tripadvisor.com.tw/Hotel_Review-g13806451-d614895-Reviews-Dong_Wu_Hotel-Datong_Taipei.html,25.04595184326172,121.51254272460938,"NT$1,939",大同區延平北路二段258號,3.0,台北,大同,"NT$2,072 - NT$3,248",4.5,497,https://media-cdn.tripadvisor.com/media/photo-s/0e/a5/58/80/caption.jpg,"免費高速上網 (WiFi), 免費網際網路, 免費早餐, 餐廳, 會議室, 禁菸飯店, 乾洗服務, 洗衣服務, 無線網路, 公用無線網路, 網際網路, 自助式早餐","禁菸客房, 家庭房, 空調設施, 保險箱, 冰箱, 平板電視",25.060406,121.511406,
新尚旅店,"台北排名第 25 的超值住宿地點，共 1,200 家",https://www.tripadvisor.com.tw/Hotel_Review-g13808853-d1191387-Reviews-Hotel_73-Zhongzheng_District_Taipei.html,25.04307746887207,121.50676727294922,"NT$1,318",中正區信義路二段73號,3.0,台北,中正區,"NT$1,670 - NT$4,114",4.5,1286,https://media-cdn.tripadvisor.com/media/photo-s/13/2a/f9/4a/caption.jpg,"免費高速上網 (WiFi), 免費早餐, 機場接送, 行李存放, 禮賓服務, 24 小時服務櫃台, 乾洗服務, 洗衣服務, 免費網際網路, 無線網路, 公用無線網路, 網際網路, 餐廳, 自助式早餐, 免費即溶咖啡, 計程車服務, 禁菸飯店, 自助式洗衣","禁菸客房, 家庭房, 空調設施, 保險箱, 冰箱, 平板電視",25.034657,121.52637,
丰居旅店雙連館,"台北排名第 26 的超值住宿地點，共 1,200 家",https://www.tripadvisor.com.tw/Hotel_Review-g13808671-d4463155-Reviews-Via_Hotel_Loft-Zhongshan_District_Taipei.html,25.060405731201172,121.51140594482422,"NT$1,628",民生東路一段42號2樓,3.0,台北,中山區,"NT$1,608 - NT$6,124",4.5,770,https://media-cdn.tripadvisor.com/media/photo-s/0a/6d/45/07/voyage-room--v10498791.jpg,"免費高速上網 (WiFi), 免費網際網路, 免費早餐, 計程車服務, 行李存放, 禮賓服務, 禁菸飯店, 自助式洗衣, 無線網路, 公用無線網路, 網際網路","禁菸客房, 家庭房, 空調設施, 冰箱, 平板電視",25.05793,121.52451,
信星旅馆 - 台北車站,"台北排名第 27 的超值住宿地點，共 1,200 家",https://www.tripadvisor.com.tw/Hotel_Review-g13806451-d6925013-Reviews-Star_Hostel_Taipei_Main_Station-Datong_Taipei.html,25.034656524658203,121.5263671875,"NT$2,041",大同區華陰街50號4樓,2.0,台北,大同,"NT$773 - NT$3,186",4.5,409,https://media-cdn.tripadvisor.com/media/photo-s/10/1e/51/bf/photo0jpg.jpg,"免費高速上網 (WiFi), 免費網際網路, 無線網路, 公用無線網路, 免費早餐, 禁菸飯店, 洗衣服務, 自助式洗衣, 網際網路","禁菸客房, 家庭房, 空調設施, 小廚房",25.050133,121.51573,"NT$1,471"
台北城大飯店,"台北排名第 28 的超值住宿地點，共 1,200 家",https://www.tripadvisor.com.tw/Hotel_Review-g13806451-d8092835-Reviews-Taipei_City_Hotel-Datong_Taipei.html,25.05792999267578,121.5245132446289,"NT$1,838",大同區重慶北路二段172號,3.5,台北,大同,"NT$2,134 - NT$4,609",4.0,147,https://media-cdn.tripadvisor.com/media/photo-s/11/82/9e/32/junior-suite-with-single-bed--v17.jpg,"免費停車, 免費高速上網 (WiFi), 免費網際網路, 餐廳, 提供上網服務的商務中心, 禮賓服務, 禁菸飯店, 洗衣服務, 無線網路, 公用無線網路, 網際網路, 提供早餐, 自助式早餐","禁菸客房, 套房, 家庭房, 空調設施, 冰箱, 平板電視",25.059586,121.51356,"NT$1,628"
喜瑞飯店,"台北排名第 29 的超值住宿地點，共 1,200 家",https://www.tripadvisor.com.tw/Hotel_Review-g13808671-d598759-Reviews-Ambience_Hotel-Zhongshan_District_Taipei.html,25.050132751464844,121.51573181152344,"NT$2,458",長安東路一段64號,3.5,台北,中山區,"NT$2,474 - NT$4,485",4.5,1866,https://media-cdn.tripadvisor.com/media/photo-s/0d/a2/ac/06/caption.jpg,"停車, 免費高速上網 (WiFi), 免費早餐, 行李存放, 禮賓服務, 24 小時服務櫃台, 乾洗服務, 洗衣服務, 免費網際網路, 無線網路, 公用無線網路, 網際網路, 酒吧/酒廊, 提供早餐, 自助式早餐, 免費即溶咖啡, 禁菸飯店, 自助式洗衣","禁菸客房, 家庭房, 空調設施, 保險箱, 迷你吧, 冰箱, 平板電視",25.048027,121.52942,"NT$2,041"
好得文旅,"台北排名第 30 的超值住宿地點，共 1,200 家",https://www.tripadvisor.com.tw/Hotel_Review-g13808671-d10387162-Reviews-Chill_Roof_Hotel-Zhongshan_District_Taipei.html,25.059585571289062,121.51355743408203,"NT$3,240",南京東路二段11號11層 中山区,3.0,台北,中山區,"NT$2,289 - NT$4,392",4.5,63,https://media-cdn.tripadvisor.com/media/photo-s/0c/fe/17/e4/room-no06-corbusier.jpg,"免費高速上網 (WiFi), 免費網際網路, 無線網路, 網際網路, 兒童活動 (適合兒童/家庭), 機場接送, 禁菸飯店, 自助式洗衣","禁菸客房, 套房, 家庭房, 空調設施, 冰箱",25.0522,121.52831,
叙美精品旅店,"台北排名第 31 的超值住宿地點，共 1,200 家",https://www.tripadvisor.com.tw/Hotel_Review-g13808853-d4866564-Reviews-Beauty_Hotels_Taipei_Hotel_B7-Zhongzheng_District_Taipei.html,25.042762756347656,121.51317596435547,"NT$1,042",重慶南路一段111號,3.0,台北,中正區,"NT$1,392 - NT$3,588",4.5,332,https://media-cdn.tripadvisor.com/media/photo-s/0e/3b/85/e1/caption.jpg,"免費高速上網 (WiFi), 免費網際網路, 免費早餐, 巴士接駁服務, 禮賓服務, 禁菸飯店, 24 小時服務櫃台, 洗衣服務, 無線網路, 公用無線網路, 網際網路, 餐廳","禁菸客房, 家庭房, 空調設施, 冰箱, 平板電視",25.042763,121.513176,
路境行旅,"台北排名第 32 的超值住宿地點，共 1,200 家",https://www.tripadvisor.com.tw/Hotel_Review-g13808853-d12404865-Reviews-Finders_Hotel-Zhongzheng_District_Taipei.html,25.0432071685791,121.51302337646484,"NT$1,335",中正區重慶南路一段86號7-11樓,3.0,台北,中正區,"NT$1,577 - NT$4,083",4.5,179,https://media-cdn.tripadvisor.com/media/photo-s/0f/65/86/97/caption.jpg,"免費高速上網 (WiFi), 免費即溶咖啡, 兒童活動 (適合兒童/家庭), 機場接送, 禮賓服務, 禁菸飯店, 24 小時服務櫃台, 乾洗服務, 免費網際網路, 無線網路, 公用無線網路, 網際網路, 洗衣服務","禁菸客房, 套房, 家庭房, 空調設施, 房務, 冰箱",25.043207,121.51302,"NT$1,450"
新驛旅店- 台北車站一館,"台北排名第 33 的超值住宿地點，共 1,200 家",https://www.tripadvisor.com.tw/Hotel_Review-g13808853-d1144583-Reviews-CityInn_Hotel_Taipei_Station_Branch_I-Zhongzheng_District_Taipei.html,25.046205520629883,121.51423645019531,"NT$1,656",中正區懷寧街7號,3.0,台北,中正區,"NT$1,856 - NT$3,371",4.5,1138,https://media-cdn.tripadvisor.com/media/photo-s/15/8d/2f/bf/caption.jpg,"免費高速上網 (WiFi), 免費即溶咖啡, 計程車服務, 行李存放, 禁菸飯店, 24 小時服務櫃台, 洗衣服務, 自助式洗衣, 免費網際網路, 無線網路, 公用無線網路, 網際網路","禁菸客房, 空調設施, 平板電視",25.046206,121.51424,"NT$1,656"
方舟旅店 - 長安復興,"台北排名第 34 的超值住宿地點，共 1,200 家",https://www.tripadvisor.com.tw/Hotel_Review-g13808671-d8553817-Reviews-Ark_Hotel_Chang_an_Fuxing-Zhongshan_District_Taipei.html,25.048276901245117,121.54335021972656,"NT$1,354",中山區長安東路二段246號3樓,2.5,台北,中山區,"NT$1,361 - NT$3,248",4.5,267,https://media-cdn.tripadvisor.com/media/photo-s/0a/9a/80/63/caption.jpg,"免費高速上網 (WiFi), 免費網際網路, 無線網路, 機場接送, 禮賓服務, 禁菸飯店, 洗衣服務, 自助式洗衣, 公用無線網路, 網際網路","禁菸客房, 家庭房, 空調設施, 微波爐, 冰箱",25.048277,121.54335,
儷夏商旅 - 西門町西寧館,"台北排名第 35 的超值住宿地點，共 1,200 家",https://www.tripadvisor.com.tw/Hotel_Review-g13806951-d5890147-Reviews-Muzik_Hotel_Ximending_Xining_Branch-Wanhua_Taipei.html,25.04575538635254,121.5067367553711,"NT$1,360",萬華區西寧南路30號3樓,3.0,台北,萬華,"NT$1,268 - NT$3,217",4.5,476,https://media-cdn.tripadvisor.com/media/photo-s/16/1c/e9/5e/caption.jpg,"附近有付費私人停車場, 免費高速上網 (WiFi), 免費即溶咖啡, 嬰兒推車, 機場接送, 禮賓服務, 禁菸飯店, 24 小時服務櫃台, 附近有付費公共停車場, 免費網際網路, 無線網路, 公用無線網路, 網際網路, 包車","城市景觀, 禁菸客房, 套房, 空調設施, 書桌, 冰箱, 平板電視, 浴缸/淋浴間, 家庭房, 瓶裝水, 衣架, 免費衛浴用品, 吹風機",25.045755,121.50674,
丰居旅店雙連館,"台北排名第 36 的超值住宿地點，共 1,200 家",https://www.tripadvisor.com.tw/Hotel_Review-g13808671-d4463155-Reviews-Via_Hotel_Loft-Zhongshan_District_Taipei.html,25.05792999267578,121.5245132446289,"NT$1,628",民生東路一段42號2樓,3.0,台北,中山區,"NT$1,608 - NT$6,124",4.5,770,https://media-cdn.tripadvisor.com/media/photo-s/0a/6d/45/07/voyage-room--v10498791.jpg,"免費高速上網 (WiFi), 免費網際網路, 免費早餐, 計程車服務, 行李存放, 禮賓服務, 禁菸飯店, 自助式洗衣, 無線網路, 公用無線網路, 網際網路","禁菸客房, 家庭房, 空調設施, 冰箱, 平板電視",25.05793,121.52451,
台北北門世民酒店,"台北排名第 37 的超值住宿地點，共 1,200 家",https://www.tripadvisor.com.tw/Hotel_Review-g13808853-d12419761-Reviews-CitizenM_Taipei_North_Gate-Zhongzheng_District_Taipei.html,25.047422409057617,121.51051330566406,"NT$2,468",中正區中華路一段3號,4.0,台北,中正區,"NT$2,258 - NT$4,485",4.5,568,https://media-cdn.tripadvisor.com/media/photo-s/14/91/2b/e5/lobby.jpg,"免費高速上網 (WiFi), 酒吧/酒廊, 會議設施, 會議室, 禮品商店, 禁菸飯店, 24 小時服務櫃台, 快速辦理入住/退房, 免費網際網路, 無線網路, 公用無線網路, 商務中心有免費無線網路, 網際網路, 咖啡館, 餐廳, 提供早餐, 自助式早餐, 共用休息室/電視區, 洗衣服務","禁菸客房, 隔音室, 空調設施, 書桌, 房務, 冰箱, 平板電視, 步入式淋浴間, 電話, 瓶裝水, 私人浴室, 隨選電影, 免費衛浴用品, 吹風機",25.047422,121.51051,
丹迪旅店 – 大安森林公園店 ,"台北排名第 38 的超值住宿地點，共 1,200 家",https://www.tripadvisor.com.tw/Hotel_Review-g13811269-d1411424-Reviews-Dandy_Hotel_Daan_Park_Branch-Da_an_Taipei.html,25.033857345581055,121.53455352783203,"NT$1,590",大安區信義路三段33號,3.0,台北,大安,"NT$2,041 - NT$5,073",4.5,1636,https://media-cdn.tripadvisor.com/media/photo-s/0f/16/ec/34/caption.jpg,"停車, 免費高速上網 (WiFi), 免費早餐, 機場接送, 傳真/影印, 行李存放, 禮賓服務, 24 小時服務櫃台, 免費網際網路, 無線網路, 公用無線網路, 網際網路, 提供早餐, 自助式早餐, 免費即溶咖啡, 計程車服務, 禁菸飯店, 乾洗服務, 洗衣服務, 自助式洗衣","禁菸客房, 套房, 家庭房, 空調設施, 房務, 保險箱, 冰箱, 平板電視",25.033857,121.53455,"NT$1,590"
新驛旅店 - 台北車站二館,"台北排名第 39 的超值住宿地點，共 1,200 家",https://www.tripadvisor.com.tw/Hotel_Review-g13806451-d1408037-Reviews-CityInn_Hotel_Taipei_Station_Branch_II-Datong_Taipei.html,25.05099105834961,121.51657104492188,"NT$1,539",大同區長安西路81號,3.0,台北,大同,"NT$1,608 - NT$4,825",5.0,1419,https://media-cdn.tripadvisor.com/media/photo-s/04/8f/16/52/caption.jpg,"免費高速上網 (WiFi), 免費即溶咖啡, 機場接送, 傳真/影印, 行李存放, 禁菸飯店, 24 小時服務櫃台, 洗衣服務, 免費網際網路, 無線網路, 公用無線網路, 網際網路, 計程車服務, 自助式洗衣","禁菸客房, 家庭房, 空調設施, 保險箱, 平板電視",25.050991,121.51657,"NT$1,595"
洛碁大飯店忠孝館,"台北排名第 40 的超值住宿地點，共 1,200 家",https://www.tripadvisor.com.tw/Hotel_Review-g13811269-d10495711-Reviews-Green_World_Hotel_Zhongxiao-Da_an_Taipei.html,25.04091453552246,121.5515365600586,"NT$1,922",大安區忠孝東路四段180號1樓,3.5,台北,大安,"NT$2,382 - NT$5,815",4.5,200,https://media-cdn.tripadvisor.com/media/photo-s/0f/f0/a1/10/caption.jpg,"免費高速上網 (WiFi), 免費網際網路, 無線網路, 免費早餐, 餐廳, 提供早餐, 禁菸飯店, 洗衣服務, 網際網路, 自助式早餐","禁菸客房, 家庭房, 空調設施, 冰箱",25.040915,121.55154,"NT$1,922"
艾特文旅,"台北排名第 41 的超值住宿地點，共 1,200 家",https://www.tripadvisor.com.tw/Hotel_Review-g13806951-d7682006-Reviews-Art_otel_Ximending_Taipei-Wanhua_Taipei.html,25.04543113708496,121.5035629272461,"NT$1,122",萬華區武昌街二段124-2號,3.5,台北,萬華,"NT$1,330 - NT$7,021",4.5,127,https://media-cdn.tripadvisor.com/media/photo-s/0d/47/9e/e2/art-otel-ximending-taipei.jpg,"免費高速上網 (WiFi), 免費網際網路, 無線網路, 公用無線網路, 禮賓服務, 禁菸飯店, 洗衣服務, 自助式洗衣, 網際網路","禁菸客房, 套房, 家庭房, 空調設施, 微波爐, 冰箱, 平板電視",25.045431,121.50356,
兄弟大飯店,"台北排名第 42 的超值住宿地點，共 1,200 家",https://www.tripadvisor.com.tw/Hotel_Review-g13806900-d308653-Reviews-Brother_Hotel_Taipei-Songshan_Taipei.html,25.05204200744629,121.54458618164062,"NT$3,230",南京東路三段255號,4.0,台北,松山,"NT$3,371 - NT$4,918",4.0,516,https://media-cdn.tripadvisor.com/media/photo-s/11/90/4a/c8/caption.jpg,"免費停車, 免費高速上網 (WiFi), 酒吧/酒廊, 機場接送, 提供上網服務的商務中心, 宴會廳, 禮賓服務, 禁菸飯店, 免費網際網路, 無線網路, 公用無線網路, 網際網路, 餐廳, 提供早餐, 自助式早餐, 會議室, 乾洗服務, 洗衣服務","禁菸客房, 套房, 家庭房, 空調設施, 客房服務, 冰箱, 平板電視",25.052042,121.544586,
城市商旅南西館,"台北排名第 43 的超值住宿地點，共 1,200 家",https://www.tripadvisor.com.tw/Hotel_Review-g13806451-d583571-Reviews-City_Suites_Taipei_Nanxi-Datong_Taipei.html,25.05410385131836,121.51284790039062,"NT$2,244",大同區南京西路169號,4.0,台北,大同,"NT$2,072 - NT$4,887",4.0,509,https://media-cdn.tripadvisor.com/media/photo-s/09/61/6e/35/vip-suite--v8748265.jpg,"免費停車, 免費高速上網 (WiFi), 有健身房的健身中心, 浴缸, 餐廳, 提供上網服務的商務中心, 會議室, 禁菸飯店, 免費網際網路, 無線網路, 網際網路, 自助式早餐, 乾洗服務, 洗衣服務","禁菸客房, 家庭房, 空調設施",25.054104,121.51285,
台北馥敦-馥寓,"台北排名第 44 的超值住宿地點，共 1,200 家",https://www.tripadvisor.com.tw/Hotel_Review-g13806900-d633449-Reviews-Taipei_Fullerton_Hotel_Maison_North-Songshan_Taipei.html,25.05906105041504,121.54444122314453,"NT$3,433",松山區復興北路315號,4.0,台北,松山,"NT$3,650 - NT$5,506",4.0,215,https://media-cdn.tripadvisor.com/media/photo-s/0e/4e/ba/43/hotel-exterior.jpg,"免費停車, 免費高速上網 (WiFi), 有健身房的健身中心, 免費早餐, 機場接送, 會議設施, 會議室, 禮賓服務, 停車, 免費網際網路, 無線網路, 公用無線網路, 網際網路, 提供早餐, 自助式早餐, 禁菸飯店, 乾洗服務, 洗衣服務","禁菸客房, 套房, 家庭房, 空調設施, 迷你吧, 冰箱, 平板電視",25.059061,121.54444,
金都精緻溫泉飯店,"台北排名第 45 的超值住宿地點，共 1,200 家",https://www.tripadvisor.com.tw/Hotel_Review-g13806427-d2190585-Reviews-Golden_Hot_Spring_Hotel-Beitou_Taipei.html,25.13654136657715,121.50743103027344,"NT$2,694",北投區光明路240號,3.5,台北,北投,"NT$3,124 - NT$4,980",4.5,189,https://media-cdn.tripadvisor.com/media/photo-s/0f/85/c2/04/caption.jpg,"免費停車, 免費高速上網 (WiFi), 免費網際網路, 浴缸, 免費早餐, 餐廳, 禁菸飯店, 洗衣服務, 無線網路, 公用無線網路, 網際網路, 自助式早餐","禁菸客房, 家庭房, 空調設施",25.136541,121.50743,"NT$2,694"
長榮桂冠酒店台北,"台北排名第 46 的超值住宿地點，共 1,200 家",https://www.tripadvisor.com.tw/Hotel_Review-g13808671-d306437-Reviews-Evergreen_Laurel_Hotel_Taipei-Zhongshan_District_Taipei.html,25.04888343811035,121.53319549560547,"NT$3,117",松江路63號,4.0,台北,中山區,"NT$3,464 - NT$7,114",4.5,378,https://media-cdn.tripadvisor.com/media/photo-s/03/00/6d/03/caption.jpg,"免費停車, 免費高速上網 (WiFi), 有健身房的健身中心, 浴缸, 酒吧/酒廊, 保姆服務, 機場接送, 提供上網服務的商務中心, 免費網際網路, 無線網路, 網際網路, 餐廳, 自助式早餐, 會議設施, 宴會廳, 會議室, Spa, 禮賓服務, 禁菸飯店, 乾洗服務, 洗衣服務","禁菸客房, 套房, 家庭房, 空調設施, 客房服務, 保險箱, 迷你吧, 平板電視",25.048883,121.533195,
福泰桔子商務旅館 - 館前店,"台北排名第 47 的超值住宿地點，共 1,200 家",https://www.tripadvisor.com.tw/Hotel_Review-g13808853-d1533888-Reviews-Orange_Hotel_Guanqian-Zhongzheng_District_Taipei.html,25.045124053955078,121.51485443115234,"NT$1,802",館前路22號,3.0,台北,中正區,"NT$1,825 - NT$3,681",4.5,344,https://media-cdn.tripadvisor.com/media/photo-s/0e/77/a4/35/caption.jpg,"免費高速上網 (WiFi), 免費網際網路, 無線網路, 公用無線網路, 禮賓服務, 禁菸飯店, 洗衣服務, 自助式洗衣, 網際網路","禁菸客房, 空調設施, 保險箱, 冰箱, 平板電視",25.045124,121.514854,
西門航棧商旅,"台北排名第 48 的超值住宿地點，共 1,200 家",https://www.tripadvisor.com.tw/Hotel_Review-g13806951-d2445647-Reviews-Ximen_Airline_Hotel-Wanhua_Taipei.html,25.043209075927734,121.50830078125,NT$942,中華路一段144號 8樓,3.0,台北,萬華,"NT$1,268 - NT$4,052",4.0,231,https://media-cdn.tripadvisor.com/media/photo-s/0e/0a/df/7f/caption.jpg,"免費高速上網 (WiFi), 免費網際網路, 無線網路, 公用無線網路, 網際網路, 禁菸飯店","禁菸客房, 空調設施, 冰箱, 平板電視",25.04321,121.5083,
台北澄舍商旅,"台北排名第 49 的超值住宿地點，共 1,200 家",https://www.tripadvisor.com.tw/Hotel_Review-g13808671-d3826117-Reviews-Taipei_Morning_Hotel-Zhongshan_District_Taipei.html,25.052291870117188,121.52835845947266,NT$957,中山區南京東路二段11號4樓,2.5,台北,中山區,"NT$1,175 - NT$2,536",4.5,512,https://media-cdn.tripadvisor.com/media/photo-s/0b/b0/82/23/taipei-morning-hotel.jpg,"免費高速上網 (WiFi), 免費網際網路, 無線網路, 公用無線網路, 網際網路, 禁菸飯店, 洗衣服務, 自助式洗衣","禁菸客房, 空調設施, 冰箱, 平板電視",25.052292,121.52836,NT$957
鉑泊客旅店,"台北排名第 50 的超值住宿地點，共 1,200 家",https://www.tripadvisor.com.tw/Hotel_Review-g13808853-d8559168-Reviews-Poshpacker_Hotel-Zhongzheng_District_Taipei.html,25.045095443725586,121.51338958740234,NT$984,重慶南路一段39號,2.5,台北,中正區,"NT$1,021 - NT$2,598",4.5,207,https://media-cdn.tripadvisor.com/media/photo-s/0f/80/b0/65/caption.jpg,"免費高速上網 (WiFi), 免費網際網路, 無線網路, 公用無線網路, 網際網路, 機場接送, 禁菸飯店, 自助式洗衣","禁菸客房, 空調設施, 冰箱, 平板電視",25.045095,121.51339,
福泰桔子商務旅館 西門店,"台北排名第 51 的超值住宿地點，共 1,200 家",https://www.tripadvisor.com.tw/Hotel_Review-g13806951-d3862269-Reviews-Orange_Hotel_Ximen_Taipei-Wanhua_Taipei.html,25.041248321533203,121.50778198242188,"NT$1,749",萬華區中華路一段166號之2,2.5,台北,萬華,"NT$1,980 - NT$3,557",4.5,413,https://media-cdn.tripadvisor.com/media/photo-s/0e/77/a9/73/caption.jpg,"免費高速上網 (WiFi), 免費網際網路, 無線網路, 公用無線網路, 網際網路, 免費早餐, 自助式早餐, 禁菸飯店","禁菸客房, 空調設施, 保險箱, 平板電視",25.041248,121.50778,
台北文華東方酒店,"台北排名第 52 的超值住宿地點，共 1,200 家",https://www.tripadvisor.com.tw/Hotel_Review-g13806900-d1416364-Reviews-Mandarin_Oriental_Taipei-Songshan_Taipei.html,25.05560302734375,121.54839324951172,"NT$8,476",敦化北路158號,5.0,台北,松山,"NT$10,609 - NT$18,403",4.5,1616,https://media-cdn.tripadvisor.com/media/photo-s/18/5c/83/90/lobby.jpg,"停車, 免費網際網路, 游泳池, 有健身房的健身中心, 酒吧/酒廊, 保姆服務, 提供上網服務的商務中心, 會議設施, 無線網路, 付費無線網路, 網際網路, 桑拿, 室外游泳池, 溫水游泳池, 餐廳, 提供早餐, 自助式早餐, 宴會廳, 會議室, Spa, 禮賓服務, 管家服務, 乾洗服務, 洗衣服務","套房, 房務, 客房服務, 保險箱, 平板電視",25.055603,121.54839,"NT$9,000"
台北商旅大安館,"台北排名第 53 的超值住宿地點，共 1,200 家",https://www.tripadvisor.com.tw/Hotel_Review-g13811269-d306453-Reviews-Les_Suites_Taipei_Da_An-Da_an_Taipei.html,25.03864288330078,121.546142578125,"NT$3,128",大安路一段135號,4.0,台北,大安,"NT$3,464 - NT$8,660",4.0,358,https://media-cdn.tripadvisor.com/media/photo-s/14/97/03/a0/caption.jpg,"免費停車, 免費高速上網 (WiFi), 有健身房的健身中心, 免費早餐, 機場接送, 提供上網服務的商務中心, 會議室, Spa, 停車, 免費網際網路, 無線網路, 公用無線網路, 網際網路, 酒吧/酒廊, 餐廳, 自助式早餐, 禮賓服務, 乾洗服務, 洗衣服務","禁菸客房, 套房, 有吸菸房, 空調設施, 迷你吧, 冰箱, 平板電視",25.038643,121.54614,
華泰王子大飯店,"台北排名第 54 的超值住宿地點，共 1,200 家",https://www.tripadvisor.com.tw/Hotel_Review-g13808671-d301400-Reviews-GLORIA_PRINCE_HOTEL_Taipei-Zhongshan_District_Taipei.html,25.05793571472168,121.52567291259766,"NT$2,503",中山區林森北路369號,3.5,台北,中山區,"NT$2,660 - NT$4,423",4.0,499,https://media-cdn.tripadvisor.com/media/photo-s/13/68/7a/1d/exterior-view.jpg,"免費高速上網 (WiFi), 有健身房的健身中心, 浴缸, 酒吧/酒廊, 機場接送, 提供上網服務的商務中心, 會議設施, 禮賓服務, 免費網際網路, 無線網路, 公用無線網路, 網際網路, 餐廳, 自助式早餐, 宴會廳, 會議室, 禁菸飯店, 乾洗服務, 洗衣服務","禁菸客房, 套房, 家庭房, 空調設施, 客房服務, 迷你吧, 冰箱, 平板電視",25.057936,121.52567,"NT$2,503"
台北碧瑤飯店,"台北排名第 55 的超值住宿地點，共 1,200 家",https://www.tripadvisor.com.tw/Hotel_Review-g13806900-d455560-Reviews-Hotel_B_Taipei-Songshan_Taipei.html,25.048038482666016,121.54469299316406,"NT$1,789",八德路二段367號,3.0,台北,松山,"NT$1,949 - NT$5,722",4.0,186,https://media-cdn.tripadvisor.com/media/photo-s/05/1a/f7/21/caption.jpg,"免費高速上網 (WiFi), 免費網際網路, 免費早餐, 提供上網服務的商務中心, 會議設施, 禁菸飯店, 乾洗服務, 自助式洗衣, 無線網路, 公用無線網路, 網際網路, 餐廳, 自助式早餐, 會議室","禁菸客房, 家庭房, 空調設施, 冰箱, 平板電視",25.048038,121.54469,
老爺會館台北林森,"台北排名第 56 的超值住宿地點，共 1,200 家",https://www.tripadvisor.com.tw/Hotel_Review-g13808671-d4439685-Reviews-Royal_Inn_Taipei_Linsen-Zhongshan_District_Taipei.html,25.04966926574707,121.5248794555664,"NT$2,029",林森北路83號4樓 Near Huashan 1914 Creative Park,3.0,台北,中山區,"NT$2,567 - NT$5,165",4.5,252,https://media-cdn.tripadvisor.com/media/photo-s/11/5a/58/91/business-room.jpg,"免費高速上網 (WiFi), 免費網際網路, 無線網路, 免費早餐, 自助式早餐, 禁菸飯店, 洗衣服務, 自助式洗衣, 公用無線網路, 網際網路","禁菸客房, 套房, 家庭房, 空調設施, 冰箱, 平板電視",25.04967,121.52488,"NT$2,299"
西悠飯店台北店,"台北排名第 57 的超值住宿地點，共 1,200 家",https://www.tripadvisor.com.tw/Hotel_Review-g13806451-d4314606-Reviews-CU_Hotel_Taipei_Branch-Datong_Taipei.html,25.057037353515625,121.51638793945312,NT$779,大同區民生西路198號2樓 大同區,3.0,台北,大同,"NT$526 - NT$2,567",4.5,427,https://media-cdn.tripadvisor.com/media/photo-s/05/f4/bf/61/caption.jpg,"免費高速上網 (WiFi), 有健身房的健身中心, 免費早餐, 提供上網服務的商務中心, 禮賓服務, 禁菸飯店, 洗衣服務, 自助式洗衣, 免費網際網路, 無線網路, 網際網路, 餐廳, 提供早餐, 自助式早餐","禁菸客房, 套房, 家庭房, 空調設施",25.057037,121.51639,
台北官邸飯店,"台北排名第 58 的超值住宿地點，共 1,200 家",https://www.tripadvisor.com.tw/Hotel_Review-g13806879-d1443190-Reviews-Grandee_Taipei_Resort-Shilin_Taipei.html,25.087854385375977,121.52625274658203,"NT$2,410",士林區文林路102號,4.0,台北,士林,"NT$2,815 - NT$4,361",4.0,238,https://media-cdn.tripadvisor.com/media/photo-s/18/66/b1/52/exterior.jpg,"免費高速上網 (WiFi), 免費網際網路, 餐廳, 自助式早餐, 會議設施, 禮賓服務, 禁菸飯店, 洗衣服務, 無線網路, 網際網路","禁菸客房, 套房, 家庭房, 空調設施, 平板電視",25.087854,121.52625,"NT$2,556"
台北捷絲旅林森館,"台北排名第 59 的超值住宿地點，共 1,200 家",https://www.tripadvisor.com.tw/Hotel_Review-g13808671-d1749289-Reviews-Just_Sleep_Lin_Sen-Zhongshan_District_Taipei.html,25.050647735595703,121.5250244140625,"NT$2,012",林森北路117號3樓,3.5,台北,中山區,"NT$2,072 - NT$3,743",4.5,813,https://media-cdn.tripadvisor.com/media/photo-s/19/2c/e0/6a/caption.jpg,"免費高速上網 (WiFi), 免費網際網路, 免費早餐, 夜店/ DJ, 禮賓服務, 禁菸飯店, 乾洗服務, 洗衣服務, 無線網路, 網際網路, 自助式早餐, 自助式洗衣","禁菸客房, 家庭房, 空調設施, 平板電視",25.050648,121.525024,"NT$2,109"
台北北投雅樂軒酒店,"台北排名第 60 的超值住宿地點，共 1,200 家",https://www.tripadvisor.com.tw/Hotel_Review-g13806427-d11978011-Reviews-Aloft_Taipei_Beitou-Beitou_Taipei.html,25.128265380859375,121.49799346923828,"NT$3,283",大業路300巷1號,4.0,台北,北投,"NT$3,495 - NT$6,062",4.5,342,https://media-cdn.tripadvisor.com/media/photo-s/0f/48/a8/3a/breezy-suite.jpg,"免費停車, 免費高速上網 (WiFi), 有健身房的健身中心, 酒吧/酒廊, 提供上網服務的商務中心, 會議設施, 禮賓服務, 禁菸飯店, 免費網際網路, 無線網路, 公用無線網路, 網際網路, 餐廳, 提供早餐, 自助式早餐, 會議室, 乾洗服務, 洗衣服務, 自助式洗衣","禁菸客房, 套房, 家庭房, 空調設施, 迷你吧, 冰箱",25.128265,121.49799,"NT$3,300"
台北文華東方酒店,"台北排名第 61 的超值住宿地點，共 1,200 家",https://www.tripadvisor.com.tw/Hotel_Review-g13806900-d1416364-Reviews-Mandarin_Oriental_Taipei-Songshan_Taipei.html,25.02655792236328,121.54936981201172,"NT$8,476",敦化北路158號,5.0,台北,松山,"NT$10,609 - NT$18,403",4.5,1616,https://media-cdn.tripadvisor.com/media/photo-s/18/5c/83/90/lobby.jpg,"停車, 免費網際網路, 游泳池, 有健身房的健身中心, 酒吧/酒廊, 保姆服務, 提供上網服務的商務中心, 會議設施, 無線網路, 付費無線網路, 網際網路, 桑拿, 室外游泳池, 溫水游泳池, 餐廳, 提供早餐, 自助式早餐, 宴會廳, 會議室, Spa, 禮賓服務, 管家服務, 乾洗服務, 洗衣服務","套房, 房務, 客房服務, 保險箱, 平板電視",25.055603,121.54839,"NT$7,700"
台北美侖大飯店,"台北排名第 62 的超值住宿地點，共 1,200 家",https://www.tripadvisor.com.tw/Hotel_Review-g13811269-d1448672-Reviews-Park_Taipei_Hotel-Da_an_Taipei.html,25.05560302734375,121.54839324951172,"NT$3,223",復興南路一段317號,3.5,台北,大安,"NT$3,062 - NT$5,382",4.5,791,https://media-cdn.tripadvisor.com/media/photo-s/14/cd/d3/78/entrance.jpg,"免費停車, 免費高速上網 (WiFi), 有健身房的健身中心, 酒吧/酒廊, 提供上網服務的商務中心, 會議設施, 禮賓服務, 禁菸飯店, 免費網際網路, 無線網路, 公用無線網路, 網際網路, 餐廳, 提供早餐, 自助式早餐, 乾洗服務, 洗衣服務","禁菸客房, 套房, 家庭房, 空調設施, 迷你吧, 冰箱, 平板電視",25.034315,121.54376,"NT$9,000"
倆人旅店,"台北排名第 63 的超值住宿地點，共 1,200 家",https://www.tripadvisor.com.tw/Hotel_Review-g13806427-d1993302-Reviews-Hotel_DOUBLE_ONE-Beitou_Taipei.html,25.03431510925293,121.54376220703125,"NT$3,273",北投區幽雅路11號,3.5,台北,北投,"NT$2,753 - NT$6,805",4.5,508,https://media-cdn.tripadvisor.com/media/photo-s/09/80/07/3d/caption.jpg,"免費停車, 免費高速上網 (WiFi), 免費網際網路, 浴缸, 免費早餐, 巴士接駁服務, 禮賓服務, 禁菸飯店, 無線網路, 公用無線網路, 網際網路, 餐廳, 自助式早餐","禁菸客房, 套房, 家庭房, 空調設施, 冰箱, 平板電視",25.136883,121.513435,
長榮桂冠酒店台北,"台北排名第 64 的超值住宿地點，共 1,200 家",https://www.tripadvisor.com.tw/Hotel_Review-g13808671-d306437-Reviews-Evergreen_Laurel_Hotel_Taipei-Zhongshan_District_Taipei.html,25.136882781982422,121.51343536376953,"NT$3,117",松江路63號,4.0,台北,中山區,"NT$3,464 - NT$7,114",4.5,378,https://media-cdn.tripadvisor.com/media/photo-s/03/00/6d/03/caption.jpg,"免費停車, 免費高速上網 (WiFi), 有健身房的健身中心, 浴缸, 酒吧/酒廊, 保姆服務, 機場接送, 提供上網服務的商務中心, 免費網際網路, 無線網路, 網際網路, 餐廳, 自助式早餐, 會議設施, 宴會廳, 會議室, Spa, 禮賓服務, 禁菸飯店, 乾洗服務, 洗衣服務","禁菸客房, 套房, 家庭房, 空調設施, 客房服務, 保險箱, 迷你吧, 平板電視",25.048883,121.533195,
台湾101 B&B,"台北排名第 65 的超值住宿地點，共 1,200 家",https://www.tripadvisor.com.tw/Hotel_Review-g13808515-d6000566-Reviews-Formosa101_Hostel-Xinyi_District_Taipei.html,25.04888343811035,121.53319549560547,"NT$1,052",基隆路二段115號9樓,2.0,台北,信義區,"NT$526 - NT$2,165",5.0,291,https://media-cdn.tripadvisor.com/media/photo-s/0e/ae/50/a3/common-room.jpg,"免費高速上網 (WiFi), 免費網際網路, 免費早餐, 自助式早餐, 機場接送, 禮賓服務, 禁菸飯店, 洗衣服務, 無線網路, 公用無線網路, 網際網路","禁菸客房, 套房, 空調設施, 客房服務, 小廚房",25.028814,121.55708,
歐華酒店,"台北排名第 66 的超值住宿地點，共 1,200 家",https://www.tripadvisor.com.tw/Hotel_Review-g13808671-d306458-Reviews-The_Riviera_Hotel-Zhongshan_District_Taipei.html,25.0288143157959,121.55708312988281,"NT$3,111",林森北路646號,4.5,台北,中山區,"NT$3,340 - NT$7,392",4.5,917,https://media-cdn.tripadvisor.com/media/photo-s/17/89/89/b9/caption.jpg,"免費停車, 免費高速上網 (WiFi), 有健身房的健身中心, 酒吧/酒廊, 機場接送, 提供上網服務的商務中心, 會議設施, 禮賓服務, 停車, 免費網際網路, 無線網路, 公用無線網路, 網際網路, 餐廳, 自助式早餐, 巴士接駁服務, 宴會廳, 會議室, 禁菸飯店, 乾洗服務, 洗衣服務","禁菸客房, 套房, 家庭房, 空調設施, 客房服務, 迷你吧, 冰箱, 平板電視",25.06825,121.52568,
夾腳拖的家 - 長安122,"台北排名第 67 的超值住宿地點，共 1,200 家",https://www.tripadvisor.com.tw/Hotel_Review-g13806451-d10884076-Reviews-Flip_Flop_Hostel_Garden-Datong_Taipei.html,25.137746810913086,121.51493835449219,"NT$1,140",長安西路122號,2.0,台北,大同,"NT$557 - NT$2,598",4.5,203,https://media-cdn.tripadvisor.com/media/photo-s/0e/90/44/bd/caption.jpg,"附近有付費公共停車場, 免費高速上網 (WiFi), 免費早餐, 腳踏車遊覽, 飛鏢, 會議設施, 限成人, 禁菸飯店, 免費網際網路, 無線網路, 網際網路, 提供早餐, 晚間娛樂, 步行遊覽, 桌遊/拼圖, 公共浴室, 共用廚房, 急救箱, 雨傘, 烘衣機, 自助式洗衣","城市景觀, 禁菸客房, 家庭房, 遮光窗簾, 空調設施, 書桌, 小廚房, 吹風機, 衣架, 微波爐, 烤爐, 冰箱, 廚房用品",25.050468,121.51805,"NT$9,715"
慕軒飯店,"台北排名第 68 的超值住宿地點，共 1,200 家",https://www.tripadvisor.com.tw/Hotel_Review-g13811269-d5667026-Reviews-Madison_Taipei_Hotel-Da_an_Taipei.html,25.06825065612793,121.52568054199219,"NT$4,428",大安區敦化南路一段331號,4.0,台北,大安,"NT$4,856 - NT$7,485",4.5,597,https://media-cdn.tripadvisor.com/media/photo-s/16/0d/a7/2a/caption.jpg,"免費停車, 免費高速上網 (WiFi), 有健身房的健身中心, 免費早餐, 機場接送, 提供上網服務的商務中心, 會議設施, 禮賓服務, 免費網際網路, 無線網路, 公用無線網路, 網際網路, 酒吧/酒廊, 餐廳, 提供早餐, 自助式早餐, 會議室, 禁菸飯店, 乾洗服務","禁菸客房, 套房, 家庭房, 空調設施, 客房服務, 迷你吧, 冰箱, 平板電視",25.033941,121.54899,"NT$3,282"
儷客旅店-西門町館,"台北排名第 69 的超值住宿地點，共 1,200 家",https://www.tripadvisor.com.tw/Hotel_Review-g13806951-d8787745-Reviews-Click_Hotel_Ximending_Branch-Wanhua_Taipei.html,25.05046844482422,121.51805114746094,"NT$2,372",萬華區西寧南路36號10樓之3,3.0,台北,萬華,"NT$1,268 - NT$4,145",4.5,504,https://media-cdn.tripadvisor.com/media/photo-s/0c/4f/b2/cd/room.jpg,"免費高速上網 (WiFi), 免費網際網路, 無線網路, 免費即溶咖啡, 機場接送, 行李存放, 禮賓服務, 禁菸飯店, 公用無線網路, 網際網路","禁菸客房, 套房, 家庭房, 空調設施, 冰箱, 平板電視",25.04573,121.50623,
柯達大飯店 台北松江,"台北排名第 70 的超值住宿地點，共 1,200 家",https://www.tripadvisor.com.tw/Hotel_Review-g13808671-d5121967-Reviews-K_Hotel_Songjiang-Zhongshan_District_Taipei.html,25.0339412689209,121.54898834228516,"NT$2,494",中山區松江路251號,3.5,台北,中山區,"NT$2,846 - NT$4,021",4.5,176,https://media-cdn.tripadvisor.com/media/photo-s/13/c4/73/90/caption.jpg,"免費高速上網 (WiFi), 免費網際網路, 免費早餐, 自助式早餐, 機場接送, 提供上網服務的商務中心, 禁菸飯店, 洗衣服務, 無線網路, 公用無線網路, 網際網路","禁菸客房, 家庭房, 空調設施, 冰箱, 平板電視",25.059301,121.53326,"NT$5,500"
台北北門世民酒店,"台北排名第 71 的超值住宿地點，共 1,200 家",https://www.tripadvisor.com.tw/Hotel_Review-g13808853-d12419761-Reviews-CitizenM_Taipei_North_Gate-Zhongzheng_District_Taipei.html,25.045730590820312,121.50623321533203,"NT$2,468",中正區中華路一段3號,4.0,台北,中正區,"NT$2,258 - NT$4,485",4.5,568,https://media-cdn.tripadvisor.com/media/photo-s/14/91/2b/e5/lobby.jpg,"免費高速上網 (WiFi), 酒吧/酒廊, 會議設施, 會議室, 禮品商店, 禁菸飯店, 24 小時服務櫃台, 快速辦理入住/退房, 免費網際網路, 無線網路, 公用無線網路, 商務中心有免費無線網路, 網際網路, 咖啡館, 餐廳, 提供早餐, 自助式早餐, 共用休息室/電視區, 洗衣服務","禁菸客房, 隔音室, 空調設施, 書桌, 房務, 冰箱, 平板電視, 步入式淋浴間, 電話, 瓶裝水, 私人浴室, 隨選電影, 免費衛浴用品, 吹風機",25.047422,121.51051,
台灣青旅膠囊旅店,"台北排名第 72 的超值住宿地點，共 1,200 家",https://www.tripadvisor.com.tw/Hotel_Review-g13808853-d11704833-Reviews-Taiwan_Youth_Hostel_Capsule_Hotel-Zhongzheng_District_Taipei.html,25.059301376342773,121.53325653076172,NT$883,中正區青島西路11號B1,2.0,台北,中正區,"NT$773 - NT$1,887",5.0,260,https://media-cdn.tripadvisor.com/media/photo-s/0d/8d/3d/77/caption.jpg,"免費高速上網 (WiFi), 免費網際網路, 無線網路, 免費早餐, 禮賓服務, 禁菸飯店, 洗衣服務, 自助式洗衣, 公用無線網路, 網際網路","禁菸客房, 空調設施, 小廚房, 微波爐",25.044994,121.517715,
和逸飯店 • 台北忠孝館,"台北排名第 73 的超值住宿地點，共 1,200 家",https://www.tripadvisor.com.tw/Hotel_Review-g13808853-d5042984-Reviews-HOTEL_COZZI_Zhongxiao_Taipei-Zhongzheng_District_Taipei.html,25.047422409057617,121.51051330566406,"NT$3,755",中正區忠孝東路一段31號,3.5,台北,中正區,"NT$3,928 - NT$6,464",4.5,464,https://media-cdn.tripadvisor.com/media/photo-s/16/09/50/c3/caption.jpg,"免費高速上網 (WiFi), 免費網際網路, 免費早餐, 會議設施, 會議室, 禮賓服務, 禁菸飯店, 乾洗服務, 無線網路, 公用無線網路, 網際網路, 酒吧/酒廊, 提供早餐, 自助式早餐","禁菸客房, 套房, 家庭房, 空調設施, 迷你吧, 冰箱, 平板電視",25.044455,121.52521,
台北官邸飯店,"台北排名第 74 的超值住宿地點，共 1,200 家",https://www.tripadvisor.com.tw/Hotel_Review-g13806879-d1443190-Reviews-Grandee_Taipei_Resort-Shilin_Taipei.html,25.044994354248047,121.51771545410156,"NT$2,410",士林區文林路102號,4.0,台北,士林,"NT$2,815 - NT$4,361",4.0,238,https://media-cdn.tripadvisor.com/media/photo-s/18/66/b1/52/exterior.jpg,"免費高速上網 (WiFi), 免費網際網路, 餐廳, 自助式早餐, 會議設施, 禮賓服務, 禁菸飯店, 洗衣服務, 無線網路, 網際網路","禁菸客房, 套房, 家庭房, 空調設施, 平板電視",25.087854,121.52625,
旅樂序精品旅館站前五館,"台北排名第 75 的超值住宿地點，共 1,200 家",https://www.tripadvisor.com.tw/Hotel_Review-g13808853-d11651293-Reviews-Hotel_Relax_5-Zhongzheng_District_Taipei.html,25.04445457458496,121.52520751953125,"NT$1,988",中正區重慶南路一段20號,3.0,台北,中正區,"NT$1,980 - NT$4,547",4.5,773,https://media-cdn.tripadvisor.com/media/photo-s/0d/d3/b3/81/caption.jpg,"免費高速上網 (WiFi), 免費網際網路, 無線網路, 網際網路, 禁菸飯店, 洗衣服務, 自助式洗衣","禁菸客房, 空調設施, 冰箱, 平板電視",25.046144,121.51303,
二十輪旅店西門町館,"台北排名第 76 的超值住宿地點，共 1,200 家",https://www.tripadvisor.com.tw/Hotel_Review-g13806951-d2241584-Reviews-Swiio_Hotel_Ximending-Wanhua_Taipei.html,25.087854385375977,121.52625274658203,"NT$1,340",萬華區武昌街二段72號 10樓,3.0,台北,萬華,"NT$1,485 - NT$3,773",4.5,917,https://media-cdn.tripadvisor.com/media/photo-s/13/5c/30/f5/caption.jpg,"免費高速上網 (WiFi), 免費即溶咖啡, 夜店/ DJ, 機場接送, 行李存放, 禁菸飯店, 24 小時服務櫃台, 洗衣服務, 免費網際網路, 無線網路, 公用無線網路, 網際網路, 計程車服務","禁菸客房, 家庭房, 空調設施, 冰箱, 平板電視",25.044863,121.50627,
丹迪旅店 – 天母店,"台北排名第 77 的超值住宿地點，共 1,200 家",https://www.tripadvisor.com.tw/Hotel_Review-g13806879-d2035389-Reviews-Dandy_Hotel_Tianmu_Branch-Shilin_Taipei.html,25.046144485473633,121.51303100585938,"NT$1,818",士林區中山北路六段728巷2號,3.5,台北,士林,"NT$1,980 - NT$4,485",5.0,955,https://media-cdn.tripadvisor.com/media/photo-s/0b/09/c1/e1/dandy-tianmu-at-night.jpg,"免費高速上網 (WiFi), 免費早餐, 機場接送, 傳真/影印, 禮賓服務, 禁菸飯店, 乾洗服務, 洗衣服務, 免費網際網路, 無線網路, 公用無線網路, 網際網路, 提供早餐, 自助式早餐, 免費即溶咖啡, 自助式洗衣","禁菸客房, 家庭房, 空調設施, 冰箱, 平板電視",25.114878,121.528114,
捷絲旅台北西門館,"台北排名第 78 的超值住宿地點，共 1,200 家",https://www.tripadvisor.com.tw/Hotel_Review-g13808853-d1534317-Reviews-Just_Sleep_Ximending-Zhongzheng_District_Taipei.html,25.044862747192383,121.50627136230469,"NT$2,212",中正區中華路一段41號,3.5,台北,中正區,"NT$2,567 - NT$5,939",4.5,1701,https://media-cdn.tripadvisor.com/media/photo-s/14/8a/40/76/exterior.jpg,"免費高速上網 (WiFi), 免費網際網路, 免費早餐, 行李存放, 禮賓服務, 24 小時服務櫃台, 乾洗服務, 洗衣服務, 無線網路, 網際網路, 提供早餐, 自助式早餐, 免費即溶咖啡, 禁菸飯店, 自助式洗衣","禁菸客房, 家庭房, 空調設施, 房務, 保險箱, 冰箱, 平板電視, 吹風機",25.04518,121.50936,"NT$1,144"
永安棧,"台北排名第 79 的超值住宿地點，共 1,200 家",https://www.tripadvisor.com.tw/Hotel_Review-g13806951-d3654334-Reviews-WESTGATE_Hotel-Wanhua_Taipei.html,25.114877700805664,121.52811431884766,"NT$4,045",中華路一段150號,4.0,台北,萬華,"NT$3,650 - NT$7,299",4.5,2043,https://media-cdn.tripadvisor.com/media/photo-s/03/d0/45/9c/caption.jpg,"免費高速上網 (WiFi), 有健身房的健身中心, 免費早餐, 提供上網服務的商務中心, 會議設施, 禮賓服務, 禁菸飯店, 24 小時服務櫃台, 免費網際網路, 無線網路, 公用無線網路, 網際網路, 酒吧/酒廊, 餐廳, 提供早餐, 自助式早餐, 免費即溶咖啡, 會議室, 乾洗服務, 洗衣服務, 自助式洗衣","禁菸客房, 套房, 家庭房, 空調設施, 房務, 客房服務, 迷你吧, 平板電視, 保險箱, 冰箱",25.042437,121.50808,
下一站台北,"台北排名第 80 的超值住宿地點，共 1,200 家",https://www.tripadvisor.com.tw/Hotel_Review-g13806951-d7253521-Reviews-Next_Stop_Taipei-Wanhua_Taipei.html,25.04517936706543,121.50936126708984,NT$693,萬華區漢中街35號9樓,2.5,台北,萬華,"NT$340 - NT$1,206",4.5,155,https://media-cdn.tripadvisor.com/media/photo-s/0f/4d/13/10/restaurant--v16221012.jpg,"免費高速上網 (WiFi), 免費網際網路, 無線網路, 網際網路, 禁菸飯店","禁菸客房, 家庭房, 空調設施, 小廚房",25.045021,121.5077,
城市商旅-南東館,"台北排名第 81 的超值住宿地點，共 1,200 家",https://www.tripadvisor.com.tw/Hotel_Review-g13806900-d2415965-Reviews-City_Suites_Taipei_Nandong-Songshan_Taipei.html,25.042436599731445,121.5080795288086,"NT$1,582",松山區南京東路五段411號,3.5,台北,松山,"NT$1,825 - NT$3,773",4.5,424,https://media-cdn.tripadvisor.com/media/photo-s/10/4c/35/46/caption.jpg,"免費高速上網 (WiFi), 餐廳, 機場接送, 提供上網服務的商務中心, 禮賓服務, 禁菸飯店, 乾洗服務, 洗衣服務, 免費網際網路, 無線網路, 公用無線網路, 網際網路, 自助式早餐","禁菸客房, 套房, 家庭房, 空調設施, 冰箱, 平板電視",25.05149,121.57009,
台北CT屋,"台北排名第 82 的超值住宿地點，共 1,200 家",https://www.tripadvisor.com.tw/Hotel_Review-g13806451-d6028427-Reviews-Taipei_City_Home-Datong_Taipei.html,25.045021057128906,121.50769805908203,"NT$1,000",大同區長安西路172巷5弄7號,,台北,大同,"NT$495 - NT$1,670",5.0,216,https://media-cdn.tripadvisor.com/media/photo-s/0f/1e/7e/dd/ct.jpg,"免費高速上網 (WiFi), 免費網際網路, 無線網路, 網際網路, 免費早餐, 禁菸飯店, 洗衣服務","禁菸客房, 空調設施, 小廚房",25.050644,121.51588,
台北北投雅樂軒酒店,"台北排名第 83 的超值住宿地點，共 1,200 家",https://www.tripadvisor.com.tw/Hotel_Review-g13806427-d11978011-Reviews-Aloft_Taipei_Beitou-Beitou_Taipei.html,25.051490783691406,121.5700912475586,"NT$3,283",大業路300巷1號,4.0,台北,北投,"NT$3,495 - NT$6,062",4.5,342,https://media-cdn.tripadvisor.com/media/photo-s/0f/48/a8/3a/breezy-suite.jpg,"免費停車, 免費高速上網 (WiFi), 有健身房的健身中心, 酒吧/酒廊, 提供上網服務的商務中心, 會議設施, 禮賓服務, 禁菸飯店, 免費網際網路, 無線網路, 公用無線網路, 網際網路, 餐廳, 提供早餐, 自助式早餐, 會議室, 乾洗服務, 洗衣服務, 自助式洗衣","禁菸客房, 套房, 家庭房, 空調設施, 迷你吧, 冰箱",25.128265,121.49799,"NT$1,582"
台北君悅酒店,"台北排名第 84 的超值住宿地點，共 1,200 家",https://www.tripadvisor.com.tw/Hotel_Review-g13808515-d306447-Reviews-Grand_Hyatt_Taipei-Xinyi_District_Taipei.html,25.050643920898438,121.51587677001953,"NT$6,300",信義區松壽路2號,5.0,台北,信義區,"NT$6,495 - NT$14,228",4.5,3462,https://media-cdn.tripadvisor.com/media/photo-s/18/62/e6/1e/exterior.jpg,"現場付費公共停車場, 免費高速上網 (WiFi), 游泳池, 有健身房的健身中心, 酒吧/酒廊, 夜店/ DJ, 機場接送, 提供上網服務的商務中心, 停車, 免費網際網路, 無線網路, 公用無線網路, 網際網路, 桑拿, 成人游泳池, 室外游泳池, 溫水游泳池, 餐廳, 提供早餐, 自助式早餐, 免費即溶咖啡, 適合兒童的自助餐, 游泳池畔酒吧, 會議設施, 宴會廳, 會議室, 禮賓服務, 禁菸飯店, 管家服務, 乾洗服務, 洗衣服務, 燙衣服務","禁菸客房, 套房, 空調設施, 房務, 客房服務, 保險箱, 迷你吧, 平板電視, 隨選電影",25.035515,121.56275,
美麗信花園酒店,"台北排名第 85 的超值住宿地點，共 1,200 家",https://www.tripadvisor.com.tw/Hotel_Review-g13808671-d606628-Reviews-Miramar_Garden_Taipei-Zhongshan_District_Taipei.html,25.128265380859375,121.49799346923828,"NT$3,404",中山區市民大道三段83號,4.5,台北,中山區,"NT$3,402 - NT$7,083",4.0,632,https://media-cdn.tripadvisor.com/media/photo-s/0f/7b/75/b7/caption.jpg,"免費停車, 免費高速上網 (WiFi), 游泳池, 有健身房的健身中心, 酒吧/酒廊, 機場接送, 提供上網服務的商務中心, 會議設施, 免費網際網路, 無線網路, 公用無線網路, 網際網路, 浴缸, 室外游泳池, 餐廳, 提供早餐, 自助式早餐, 游泳池畔酒吧, 宴會廳, 會議室, 禮賓服務, 禁菸飯店, 乾洗服務, 洗衣服務","禁菸客房, 套房, 家庭房, 空調設施, 客房服務, 迷你吧, 冰箱, 平板電視",25.044844,121.53722,"NT$3,300"
清翼居 - 童話館,"台北排名第 86 的超值住宿地點，共 1,200 家",https://www.tripadvisor.com.tw/Hotel_Review-g13808853-d8002516-Reviews-Morwing_Hotel_Fairy_Tale-Zhongzheng_District_Taipei.html,25.03551483154297,121.56275177001953,"NT$1,088",中正區開封街一段36號3樓,2.5,台北,中正區,"NT$1,361 - NT$4,206",4.5,259,https://media-cdn.tripadvisor.com/media/photo-s/08/6a/e9/8d/caption.jpg,"免費高速上網 (WiFi), 免費網際網路, 無線網路, 網際網路, 禮賓服務, 禁菸飯店, 洗衣服務, 自助式洗衣","禁菸客房, 空調設施, 冰箱",25.045868,121.51248,"NT$6,300"
台北中山逸林酒店,"台北排名第 87 的超值住宿地點，共 1,200 家",https://www.tripadvisor.com.tw/Hotel_Review-g13808671-d15661515-Reviews-DoubleTree_by_Hilton_Taipei_Zhongshan-Zhongshan_District_Taipei.html,25.044843673706055,121.53721618652344,"NT$5,359",中山北路一段123號,4.5,台北,中山區,"NT$4,980 - NT$10,331",4.5,138,https://media-cdn.tripadvisor.com/media/photo-s/17/82/8a/b1/doubletree-by-hilton.jpg,"免費網際網路, 有健身房的健身中心, 酒吧/酒廊, 機場接送, 提供上網服務的商務中心, 會議設施, 行李存放, 禮賓服務, 無線網路, 公用無線網路, 付費無線網路, 付費網際網路, 網際網路, 餐廳, 提供早餐, 會議室, 禁菸飯店, 24 小時服務櫃台, 乾洗服務, 洗衣服務","禁菸客房, 套房, 家庭房, 空調設施, 客房服務",25.05139,121.52269,
璞漣商旅 西門店,"台北排名第 88 的超值住宿地點，共 1,200 家",https://www.tripadvisor.com.tw/Hotel_Review-g13806951-d607467-Reviews-Hotel_Puri_Ximen_Branch-Wanhua_Taipei.html,25.045867919921875,121.51248168945312,"NT$1,427",萬華區成都路27巷6號,3.0,台北,萬華,"NT$1,361 - NT$3,681",4.0,606,https://media-cdn.tripadvisor.com/media/photo-s/07/02/86/8f/hotel-puri.jpg,"免費高速上網 (WiFi), 免費網際網路, 無線網路, 公用無線網路, 網際網路, 禁菸飯店","禁菸客房, 空調設施, 冰箱, 平板電視",25.042969,121.50651,"NT$1,088"
金普頓大安酒店,"台北排名第 89 的超值住宿地點，共 1,200 家",https://www.tripadvisor.com.tw/Hotel_Review-g13811269-d16766127-Reviews-Kimpton_Da_An_Hotel-Da_an_Taipei.html,25.051389694213867,121.52268981933594,"NT$6,080",仁愛路四段27巷25號,4.5,台北,大安,"NT$6,712 - NT$11,661",5.0,86,https://media-cdn.tripadvisor.com/media/photo-s/17/82/6e/67/kimpton-da-an-hotel.jpg,"免費停車, 免費高速上網 (WiFi), 免費網際網路, 有健身房的健身中心, 酒吧/酒廊, 允許攜帶寵物 (可帶狗/寵物), 乾洗服務, 洗衣服務, 無線網路, 網際網路, 餐廳","禁菸客房, 套房, 空調設施, 客房服務",25.040447,121.54548,"NT$5,359"
璞漣商旅台北車站館,"台北排名第 90 的超值住宿地點，共 1,200 家",https://www.tripadvisor.com.tw/Hotel_Review-g13806451-d6613131-Reviews-Hotel_Puri_Taipei_Station_Branch-Datong_Taipei.html,25.04296875,121.50650787353516,"NT$1,039",大同區華陰街46號3樓,3.0,台北,大同,"NT$1,330 - NT$4,021",4.0,302,https://media-cdn.tripadvisor.com/media/photo-s/0b/b0/90/63/hotel-puri-taipei-station.jpg,"免費高速上網 (WiFi), 免費網際網路, 無線網路, 公用無線網路, 網際網路, 禁菸飯店, 洗衣服務, 自助式洗衣","禁菸客房, 家庭房, 空調設施, 保險箱, 冰箱, 平板電視",25.050116,121.51558,
旅樂序精品旅館-站前三館,"台北排名第 91 的超值住宿地點，共 1,200 家",https://www.tripadvisor.com.tw/Hotel_Review-g13808853-d8493751-Reviews-Hotel_Relax_3-Zhongzheng_District_Taipei.html,25.137746810913086,121.51493835449219,"NT$3,215",中正區懷寧街34號,3.0,台北,中正區,"NT$2,258 - NT$5,846",4.5,1316,https://media-cdn.tripadvisor.com/media/photo-s/08/a8/1f/bb/sign-board.jpg,"免費高速上網 (WiFi), 免費早餐, 機場接送, 行李存放, 禁菸飯店, 24 小時服務櫃台, 洗衣服務, 自助式洗衣, 免費網際網路, 無線網路, 公用無線網路, 網際網路, 餐廳, 提供早餐, 自助式早餐","禁菸客房, 家庭房, 遮光窗簾, 空調設施, 房務, 保險箱, 迷你吧, 平板電視, 冰箱",25.045086,121.51407,"NT$9,715"
丹迪旅店 - 天津店,"台北排名第 92 的超值住宿地點，共 1,200 家",https://www.tripadvisor.com.tw/Hotel_Review-g13808671-d1066078-Reviews-Dandy_Hotel_Tianjin_Branch-Zhongshan_District_Taipei.html,25.045085906982422,121.51406860351562,"NT$2,213",中山區天津街70號,3.0,台北,中山區,"NT$2,382 - NT$6,155",4.5,1076,https://media-cdn.tripadvisor.com/media/photo-s/0d/b8/ff/e2/caption.jpg,"免費高速上網 (WiFi), 免費網際網路, 免費早餐, 機場接送, 行李存放, 禮賓服務, 乾洗服務, 洗衣服務, 無線網路, 公用無線網路, 網際網路, 餐廳, 提供早餐, 自助式早餐, 免費即溶咖啡, 計程車服務, 禁菸飯店, 自助式洗衣","禁菸客房, 家庭房, 空調設施, 私人陽台, 冰箱, 平板電視",25.051601,121.52336,
太空艙旅店衡陽館,"台北排名第 93 的超值住宿地點，共 1,200 家",https://www.tripadvisor.com.tw/Hotel_Review-g13808853-d6987800-Reviews-Space_Inn_Hengyang_Branch-Zhongzheng_District_Taipei.html,25.05160140991211,121.52336120605469,NT$556,衡陽路51號B1,2.0,台北,中正區,"NT$371 - NT$1,608",4.5,296,https://media-cdn.tripadvisor.com/media/photo-s/06/d0/68/d0/caption.jpg,"免費高速上網 (WiFi), 免費網際網路, 無線網路, 網際網路, 禁菸飯店, 洗衣服務, 自助式洗衣","禁菸客房, 空調設施, 小廚房",25.042347,121.512184,"NT$2,800"
台北馥華商旅松江館,"台北排名第 94 的超值住宿地點，共 1,200 家",https://www.tripadvisor.com.tw/Hotel_Review-g13808671-d1526865-Reviews-Forward_Hotel_Taipei_Songjiang_Branch-Zhongshan_District_Taipei.html,25.042346954345703,121.5121841430664,"NT$2,008",中山區一江街3號,3.0,台北,中山區,"NT$2,382 - NT$5,444",4.0,244,https://media-cdn.tripadvisor.com/media/photo-s/16/1f/f7/b8/caption.jpg,"免費停車, 免費高速上網 (WiFi), 有健身房的健身中心, 免費早餐, 機場接送, 提供上網服務的商務中心, 會議設施, Spa, 免費網際網路, 無線網路, 公用無線網路, 網際網路, 提供早餐, 自助式早餐, 會議室, 禮賓服務, 禁菸飯店, 乾洗服務, 洗衣服務, 自助式洗衣","禁菸客房, 家庭房, 空調設施, 私人陽台, 保險箱, 冰箱, 平板電視",25.0507,121.53157,
台北漫步青年旅店,"台北排名第 95 的超值住宿地點，共 1,200 家",https://www.tripadvisor.com.tw/Hotel_Review-g13806951-d5893025-Reviews-Meander_Taipei_Hostel-Wanhua_Taipei.html,25.05069923400879,121.53157043457031,"NT$1,472",西门町成都路163號,2.0,台北,萬華,"NT$650 - NT$3,186",5.0,769,https://media-cdn.tripadvisor.com/media/photo-s/05/d4/9e/15/caption.jpg,"免費高速上網 (WiFi), 免費網際網路, 無線網路, 免費早餐, 自助式早餐, 禁菸飯店, 洗衣服務, 自助式洗衣, 公用無線網路, 網際網路","禁菸客房, 家庭房, 空調設施, 小廚房",25.04389,121.5024,
台北萬豪酒店,"台北排名第 96 的超值住宿地點，共 1,200 家",https://www.tripadvisor.com.tw/Hotel_Review-g13808671-d7840139-Reviews-Taipei_Marriott_Hotel-Zhongshan_District_Taipei.html,25.04388999938965,121.50240325927734,"NT$6,907",中山區樂群二路199號,4.5,台北,中山區,"NT$6,124 - NT$10,362",4.5,705,https://media-cdn.tripadvisor.com/media/photo-s/19/23/4d/2b/exterior.jpg,"免費停車, 免費高速上網 (WiFi), 游泳池, 有健身房的健身中心, 酒吧/酒廊, 兒童可享免費住宿, 機場接送, 提供上網服務的商務中心, 停車, 免費網際網路, 無線網路, 付費網際網路, 網際網路, 屋頂游泳池, 室外游泳池, 溫水游泳池, 餐廳, 自助式早餐, 會議設施, 宴會廳, 會議室, Spa, 禮賓服務, 禁菸飯店, 乾洗服務, 洗衣服務","禁菸客房, 套房, 家庭房, 空調設施, 房務, 客房服務, 迷你吧, 平板電視",25.080334,121.55896,
清翼居采風館,"台北排名第 97 的超值住宿地點，共 1,200 家",https://www.tripadvisor.com.tw/Hotel_Review-g13808853-d8715382-Reviews-Morwing_Hotel_Culture_Vogue-Zhongzheng_District_Taipei.html,25.045730590820312,121.50623321533203,"NT$1,321",南陽街8號5樓,3.0,台北,中正區,"NT$1,268 - NT$3,340",4.5,389,https://media-cdn.tripadvisor.com/media/photo-s/16/44/a1/b0/caption.jpg,"免費高速上網 (WiFi), 免費網際網路, 無線網路, 網際網路, 禁菸飯店, 洗衣服務, 自助式洗衣","禁菸客房, 空調設施, 冰箱, 平板電視",25.045254,121.51608,
老爺大酒店,"台北排名第 98 的超值住宿地點，共 1,200 家",https://www.tripadvisor.com.tw/Hotel_Review-g13808671-d302516-Reviews-Hotel_Royal_Nikko_Taipei-Zhongshan_District_Taipei.html,25.080333709716797,121.5589599609375,"NT$4,120",中山北路二段37-1號,4.5,台北,中山區,"NT$4,949 - NT$13,733",4.5,1276,https://media-cdn.tripadvisor.com/media/photo-s/17/c6/93/61/guest-room.jpg,"免費停車, 免費高速上網 (WiFi), 游泳池, 有健身房的健身中心, 酒吧/酒廊, 機場接送, 提供上網服務的商務中心, 會議設施, 免費網際網路, 無線網路, 公用無線網路, 網際網路, 浴缸, 屋頂游泳池, 餐廳, 提供早餐, 自助式早餐, 計程車服務, 宴會廳, 會議室, Spa, 按摩, 行李存放, 禮賓服務, 禁菸飯店, 乾洗服務, 洗衣服務","禁菸客房, 套房, 家庭房, 空調設施, 客房服務, 迷你吧, 冰箱, 平板電視",25.053719,121.52291,
慶泰飯店,"台北排名第 99 的超值住宿地點，共 1,200 家",https://www.tripadvisor.com.tw/Hotel_Review-g13808671-d455558-Reviews-Taipei_Gala_Hotel-Zhongshan_District_Taipei.html,25.04525375366211,121.51608276367188,"NT$2,066",松江路186號,4.0,台北,中山區,"NT$2,413 - NT$6,000",4.0,531,https://media-cdn.tripadvisor.com/media/photo-s/0d/e0/d8/ca/caption.jpg,"免費停車, 免費高速上網 (WiFi), 餐廳, 機場接送, 提供上網服務的商務中心, 會議設施, 禮賓服務, 禁菸飯店, 免費網際網路, 無線網路, 公用無線網路, 網際網路, 提供早餐, 自助式早餐, 宴會廳, 會議室, 乾洗服務, 洗衣服務, 自助式洗衣","禁菸客房, 套房, 家庭房, 空調設施, 客房服務, 迷你吧, 冰箱, 平板電視",25.056557,121.53291,
旅樂序精品旅館 站前一館,"台北排名第 100 的超值住宿地點，共 1,200 家",https://www.tripadvisor.com.tw/Hotel_Review-g13808853-d4023040-Reviews-Hotel_Relax_I-Zhongzheng_District_Taipei.html,25.05371856689453,121.52291107177734,"NT$1,767",中正區館前路8號11樓,3.0,台北,中正區,"NT$1,980 - NT$5,413",4.5,1400,https://media-cdn.tripadvisor.com/media/photo-s/06/90/3c/60/caption.jpg,"免費高速上網 (WiFi), 免費早餐, 計程車服務, 行李存放, 禮賓服務, 24 小時服務櫃台, 乾洗服務, 自助式洗衣, 免費網際網路, 無線網路, 公用無線網路, 網際網路, 餐廳, 自助式早餐, 免費即溶咖啡, 禁菸飯店","禁菸客房, 套房, 家庭房, 空調設施, 保險箱, 冰箱, 平板電視",25.045801,121.51484,"NT$4,120"
Solo Singer 旅館,"台北排名第 101 的超值住宿地點，共 1,200 家",https://www.tripadvisor.com.tw/Hotel_Review-g13806427-d3454140-Reviews-Solo_Singer_Hotel-Beitou_Taipei.html,25.056556701660156,121.53291320800781,"NT$2,009",北投區溫泉路21巷7號,3.0,台北,北投,"NT$2,196 - NT$4,330",5.0,188,https://media-cdn.tripadvisor.com/media/photo-s/0b/40/1b/1b/solo-singer-life--v11414534.jpg,"免費高速上網 (WiFi), 免費網際網路, 無線網路, 公用無線網路, 網際網路, 免費早餐, 禮賓服務, 禁菸飯店","禁菸客房, 套房, 家庭房, 空調設施",25.134142,121.50283,"NT$2,286"
台北君悅酒店,"台北排名第 102 的超值住宿地點，共 1,200 家",https://www.tripadvisor.com.tw/Hotel_Review-g13808515-d306447-Reviews-Grand_Hyatt_Taipei-Xinyi_District_Taipei.html,25.045801162719727,121.51483917236328,"NT$6,300",信義區松壽路2號,5.0,台北,信義區,"NT$6,495 - NT$14,228",4.5,3462,https://media-cdn.tripadvisor.com/media/photo-s/18/62/e6/1e/exterior.jpg,"現場付費公共停車場, 免費高速上網 (WiFi), 游泳池, 有健身房的健身中心, 酒吧/酒廊, 夜店/ DJ, 機場接送, 提供上網服務的商務中心, 停車, 免費網際網路, 無線網路, 公用無線網路, 網際網路, 桑拿, 成人游泳池, 室外游泳池, 溫水游泳池, 餐廳, 提供早餐, 自助式早餐, 免費即溶咖啡, 適合兒童的自助餐, 游泳池畔酒吧, 會議設施, 宴會廳, 會議室, 禮賓服務, 禁菸飯店, 管家服務, 乾洗服務, 洗衣服務, 燙衣服務","禁菸客房, 套房, 空調設施, 房務, 客房服務, 保險箱, 迷你吧, 平板電視, 隨選電影",25.035515,121.56275,"NT$2,083"
金來商旅,"台北排名第 103 的超值住宿地點，共 1,200 家",https://www.tripadvisor.com.tw/Hotel_Review-g13808853-d658760-Reviews-Royal_Biz_Taipei-Zhongzheng_District_Taipei.html,25.13414192199707,121.5028305053711,"NT$2,428","中正區金山南路一段71號 Zhongzheng Dist., Taipei City",3.5,台北,中正區,"NT$2,815 - NT$5,165",4.5,442,https://media-cdn.tripadvisor.com/media/photo-s/09/2d/05/b3/deluxe-king-room--v9185541.jpg,"附近有付費私人停車場, 免費高速上網 (WiFi), 有健身房的健身中心, 免費早餐, 機場接送, 提供上網服務的商務中心, 會議設施, 24 小時保全, 停車, 免費網際網路, 無線網路, 網際網路, 餐廳, 自助式早餐, 適合兒童的自助餐, 包車, 計程車服務, 會議室, 禮賓服務, 外幣兌換服務, 禁菸飯店, 急救箱, 24 小時辦理入住, 24 小時服務櫃台, 快速辦理入住/退房, 乾洗服務, 洗衣服務","城市景觀, 禁菸客房, 套房, 浴袍, 空調設施, 保險箱, 迷你吧, 平板電視, 家庭房, 電話, 衣櫃/壁櫥, 瓶裝水, 衣架, 熨斗, 私人浴室, 喚醒服務/鬧鐘, 冰箱, 電熱水壺, 浴缸/淋浴間, 免費衛浴用品, 吹風機",25.037321,121.528175,
美麗信花園酒店,"台北排名第 104 的超值住宿地點，共 1,200 家",https://www.tripadvisor.com.tw/Hotel_Review-g13808671-d606628-Reviews-Miramar_Garden_Taipei-Zhongshan_District_Taipei.html,25.03551483154297,121.56275177001953,"NT$3,404",中山區市民大道三段83號,4.5,台北,中山區,"NT$3,402 - NT$7,083",4.0,632,https://media-cdn.tripadvisor.com/media/photo-s/0f/7b/75/b7/caption.jpg,"免費停車, 免費高速上網 (WiFi), 游泳池, 有健身房的健身中心, 酒吧/酒廊, 機場接送, 提供上網服務的商務中心, 會議設施, 免費網際網路, 無線網路, 公用無線網路, 網際網路, 浴缸, 室外游泳池, 餐廳, 提供早餐, 自助式早餐, 游泳池畔酒吧, 宴會廳, 會議室, 禮賓服務, 禁菸飯店, 乾洗服務, 洗衣服務","禁菸客房, 套房, 家庭房, 空調設施, 客房服務, 迷你吧, 冰箱, 平板電視",25.044844,121.53722,"NT$6,300"
方舟旅店 - 東門館,"台北排名第 105 的超值住宿地點，共 1,200 家",https://www.tripadvisor.com.tw/Hotel_Review-g13808853-d4583280-Reviews-ARK_Hotel_Dongmen-Zhongzheng_District_Taipei.html,25.037321090698242,121.5281753540039,"NT$1,605",信義路二段255號,2.5,台北,中正區,"NT$1,608 - NT$3,619",4.5,248,https://media-cdn.tripadvisor.com/media/photo-s/04/8b/d0/79/caption.jpg,"免費高速上網 (WiFi), 免費網際網路, 免費早餐, 機場接送, 禮賓服務, 禁菸飯店, 洗衣服務, 自助式洗衣, 無線網路, 公用無線網路, 網際網路","禁菸客房, 套房, 家庭房, 空調設施, 保險箱, 冰箱, 平板電視",25.033623,121.53146,
瘋台北青旅,"台北排名第 106 的超值住宿地點，共 1,200 家",https://www.tripadvisor.com.tw/Hotel_Review-g13808853-d6931589-Reviews-Fun_Inn_Taipei-Zhongzheng_District_Taipei.html,25.044843673706055,121.53721618652344,NT$526,中正區延平南路21號2樓,2.0,台北,中正區,"NT$433 - NT$1,206",5.0,346,https://media-cdn.tripadvisor.com/media/photo-s/14/34/fd/61/caption.jpg,"免費高速上網 (WiFi), 免費網際網路, 無線網路, 網際網路, 禁菸飯店, 洗衣服務","禁菸客房, 空調設施, 小廚房",25.045712,121.51061,
丰居旅店西門館,"台北排名第 107 的超值住宿地點，共 1,200 家",https://www.tripadvisor.com.tw/Hotel_Review-g13806951-d3134481-Reviews-Via_Hotel-Wanhua_Taipei.html,25.03362274169922,121.53146362304688,"NT$1,887",中華路一段114巷17號2樓,3.0,台北,萬華,"NT$2,165 - NT$4,547",4.5,750,https://media-cdn.tripadvisor.com/media/photo-s/12/66/3d/90/traveler-s-living-room.jpg,"免費高速上網 (WiFi), 免費網際網路, 無線網路, 公用無線網路, 行李存放, 禁菸飯店, 洗衣服務, 自助式洗衣, 網際網路","禁菸客房, 家庭房, 空調設施, 冰箱, 平板電視",25.044006,121.50775,
富邦藝旅台北大安,"台北排名第 108 的超值住宿地點，共 1,200 家",https://www.tripadvisor.com.tw/Hotel_Review-g13811269-d10684961-Reviews-Folio_Daan_Taipei-Da_an_Taipei.html,25.045711517333984,121.51061248779297,"NT$2,654",信義路四段30巷23號,3.5,台北,大安,"NT$3,031 - NT$4,856",4.5,162,https://media-cdn.tripadvisor.com/media/photo-s/0e/bc/d7/b0/caption.jpg,"免費高速上網 (WiFi), 免費網際網路, 無線網路, 酒吧/酒廊, 餐廳, 禁菸飯店, 洗衣服務, 自助式洗衣, 公用無線網路, 網際網路, 提供早餐, 自助式早餐","禁菸客房, 空調設施, 冰箱",25.03234,121.54475,
大倉久和大飯店,"台北排名第 109 的超值住宿地點，共 1,200 家",https://www.tripadvisor.com.tw/Hotel_Review-g13808671-d3371409-Reviews-The_Okura_Prestige_Taipei-Zhongshan_District_Taipei.html,25.04400634765625,121.50775146484375,"NT$5,630",南京東路一段9號,5.0,台北,中山區,"NT$6,495 - NT$11,722",4.5,1330,https://media-cdn.tripadvisor.com/media/photo-s/17/c6/9c/d3/restaurant.jpg,"免費停車, 免費高速上網 (WiFi), 游泳池, 有健身房的健身中心, 酒吧/酒廊, 機場接送, 提供上網服務的商務中心, 會議設施, 免費網際網路, 無線網路, 網際網路, 浴缸, 屋頂游泳池, 室外游泳池, 溫水游泳池, 餐廳, 自助式早餐, 宴會廳, 會議室, Spa, 屋頂露台, 行李存放, 禮賓服務, 禁菸飯店, 乾洗服務, 洗衣服務","禁菸客房, 家庭房, 空調設施, 客房服務, 保險箱, 迷你吧, 冰箱, 平板電視",25.052488,121.523285,
皇家季節酒店台北南西館,"台北排名第 110 的超值住宿地點，共 1,200 家",https://www.tripadvisor.com.tw/Hotel_Review-g293913-d1173001-Reviews-Royal_Seasons_Hotel_Taipei_Nanjing_West-Taipei.html,25.032339096069336,121.54474639892578,"NT$1,505","南京西路326,330號",4.0,台北,台北飯店,"NT$1,763 - NT$4,145",4.0,540,https://media-cdn.tripadvisor.com/media/photo-s/11/39/be/b9/double-deluxe-room--v17832497.jpg,"免費高速上網 (WiFi), 有健身房的健身中心, 浴缸, 免費早餐, 免費接駁或計程車服務, 提供上網服務的商務中心, 會議設施, 禮賓服務, 免費網際網路, 無線網路, 公用無線網路, 網際網路, 餐廳, 自助式早餐, 巴士接駁服務, 會議室, 禁菸飯店, 乾洗服務, 洗衣服務","禁菸客房, 套房, 空調設施, 冰箱, 平板電視",25.053816,121.51266,
台北東京國際飯店,"台北排名第 111 的超值住宿地點，共 1,200 家",https://www.tripadvisor.com.tw/Hotel_Review-g13808671-d1605452-Reviews-Tokyo_International_Hotel-Zhongshan_District_Taipei.html,25.052488327026367,121.52328491210938,"NT$3,263",中山區長春路39號,3.5,台北,中山區,"NT$2,753 - NT$6,990",4.5,568,https://media-cdn.tripadvisor.com/media/photo-s/09/cc/20/a8/lobby--v9187923.jpg,"免費高速上網 (WiFi), 有健身房的健身中心, 浴缸, 免費早餐, 機場接送, 提供上網服務的商務中心, 會議設施, 禮賓服務, 免費網際網路, 無線網路, 公用無線網路, 網際網路, 自助式早餐, 禁菸飯店, 乾洗服務, 洗衣服務, 自助式洗衣","禁菸客房, 套房, 家庭房, 空調設施, 冰箱, 平板電視",25.054972,121.525826,"NT$6,074"
台北W飯店,"台北排名第 112 的超值住宿地點，共 1,200 家",https://www.tripadvisor.com.tw/Hotel_Review-g13808515-d1879542-Reviews-W_Taipei-Xinyi_District_Taipei.html,25.053815841674805,121.51265716552734,"NT$9,000",忠孝東路五段10號 Metro Station: Taipei City Hall - Exit 2,5.0,台北,信義區,"NT$9,681 - NT$13,207",4.5,3411,https://media-cdn.tripadvisor.com/media/photo-s/19/26/62/c6/exterior.jpg,"免費停車, 免費高速上網 (WiFi), 游泳池, 有健身房的健身中心, 酒吧/酒廊, 晚間娛樂, 夜店/ DJ, 兒童可享免費住宿, 停車, 免費網際網路, 無線網路, 公用無線網路, 網際網路, 浴缸, 桑拿, 屋頂游泳池, 成人游泳池, 室外游泳池, 溫水游泳池, 餐廳, 提供早餐, 自助式早餐, 免費即溶咖啡, 游泳池酒吧, 游泳池畔酒吧, 屋頂酒吧, 機場接送, 包車, 提供上網服務的商務中心, 會議設施, 宴會廳, 會議室, 傳真/影印, Spa, 禮賓服務, 禁菸飯店, 24 小時服務櫃台, 快速辦理入住/退房, 乾洗服務, 洗衣服務","禁菸客房, 套房, 家庭房, 空調設施, 房務, 客房服務, 迷你吧, 平板電視, 保險箱, 冰箱",25.040522,121.56583,
台北發現青年旅舍,"台北排名第 113 的超值住宿地點，共 1,200 家",https://www.tripadvisor.com.tw/Hotel_Review-g13808671-d8695328-Reviews-Taipei_Discover_Hostel-Zhongshan_District_Taipei.html,25.05497169494629,121.52582550048828,"NT$1,126",民權東路二段21號5樓,2.0,台北,中山區,"NT$588 - NT$1,330",5.0,83,https://media-cdn.tripadvisor.com/media/photo-s/0b/1d/0c/12/taipei-discover-hostel.jpg,"免費高速上網 (WiFi), 免費網際網路, 免費早餐, 會議室, 禮賓服務, 禁菸飯店, 洗衣服務, 自助式洗衣, 無線網路, 公用無線網路, 網際網路","禁菸客房, 空調設施, 小廚房",25.062738,121.52904,
台北天成大飯店,"台北排名第 114 的超值住宿地點，共 1,200 家",https://www.tripadvisor.com.tw/Hotel_Review-g13808853-d455561-Reviews-Cosmos_Hotel_Taipei-Zhongzheng_District_Taipei.html,25.0405216217041,121.56582641601562,"NT$2,266",中正區忠孝西路一段43號 Zhongzheng Dist,4.0,台北,中正區,"NT$2,753 - NT$4,887",4.5,4256,https://media-cdn.tripadvisor.com/media/photo-s/11/6f/72/5e/caption.jpg,"免費停車, 免費高速上網 (WiFi), 有健身房的健身中心, 浴缸, 酒吧/酒廊, 計程車服務, 提供上網服務的商務中心, 會議設施, 停車, 免費網際網路, 無線網路, 網際網路, 餐廳, 提供早餐, 自助式早餐, 免費即溶咖啡, 宴會廳, 會議室, 傳真/影印, 行李存放, 禮賓服務, 禁菸飯店, 24 小時服務櫃台, 乾洗服務, 洗衣服務","禁菸客房, 套房, 家庭房, 遮光窗簾, 空調設施, 房務, 迷你吧, 平板電視, 客房服務, 保險箱, 冰箱",25.046257,121.51827,"NT$9,000"
台北國泰萬怡酒店,"台北排名第 115 的超值住宿地點，共 1,200 家",https://www.tripadvisor.com.tw/Hotel_Review-g13808671-d15632350-Reviews-Courtyard_by_Marriott_Taipei_Downtown-Zhongshan_District_Taipei.html,25.0627384185791,121.52903747558594,"NT$5,000",民生東路3段6號,3.5,台北,中山區,"NT$5,320 - NT$7,269",4.5,147,https://media-cdn.tripadvisor.com/media/photo-s/18/00/2a/36/exterior.jpg,"免費停車, 免費高速上網 (WiFi), 有健身房的健身中心, 酒吧/酒廊, 會議設施, 宴會廳, 禮賓服務, 快速辦理入住/退房, 免費網際網路, 無線網路, 公用無線網路, 網際網路, 餐廳, 提供早餐, 免費即溶咖啡, 會議室, 乾洗服務, 洗衣服務","禁菸客房, 套房, 家庭房, 空調設施, 客房服務, VIP 客房設施, 冰箱",25.057638,121.54101,
誠品行旅,"台北排名第 116 的超值住宿地點，共 1,200 家",https://www.tripadvisor.com.tw/Hotel_Review-g13808515-d5207493-Reviews-Eslite_Hotel-Xinyi_District_Taipei.html,25.04625701904297,121.51827239990234,"NT$7,186",信義區菸廠路98號,4.5,台北,信義區,"NT$6,897 - NT$11,753",4.5,440,https://media-cdn.tripadvisor.com/media/photo-s/09/d2/cc/aa/bathroom.jpg,"免費停車, 免費高速上網 (WiFi), 有健身房的健身中心, 酒吧/酒廊, 提供上網服務的商務中心, 會議設施, 禮賓服務, 禁菸飯店, 免費網際網路, 無線網路, 網際網路, 餐廳, 自助式早餐, 宴會廳, 會議室, 乾洗服務, 洗衣服務","禁菸客房, 套房, 家庭房, 空調設施, 私人陽台, 客房服務, 迷你吧, 平板電視, 冰箱",25.045082,121.561874,
天玥泉會館,"台北排名第 117 的超值住宿地點，共 1,200 家",https://www.tripadvisor.com.tw/Hotel_Review-g13806427-d3935003-Reviews-Beitou_Hot_Spring_Resort_Tian_Yue_Quan-Beitou_Taipei.html,25.05763816833496,121.54100799560547,"NT$3,213",北投區中山路3號,3.5,台北,北投,"NT$3,959 - NT$6,897",4.0,309,https://media-cdn.tripadvisor.com/media/photo-s/03/e8/3c/39/caption.jpg,"免費停車, 免費高速上網 (WiFi), 浴缸, 免費早餐, 會議設施, 宴會廳, 禮賓服務, 乾洗服務, 免費網際網路, 無線網路, 公用無線網路, 網際網路, 餐廳, 自助式早餐, 會議室, 洗衣服務","禁菸客房, 套房, 空調設施, 冰箱, 平板電視",25.13654,121.50511,
台北士林萬麗酒店,"台北排名第 118 的超值住宿地點，共 1,200 家",https://www.tripadvisor.com.tw/Hotel_Review-g13806879-d15019649-Reviews-Renaissance_Taipei_Shihlin_Hotel-Shilin_Taipei.html,25.045082092285156,121.56187438964844,"NT$6,150",中山北路五段470巷8號,4.0,台北,士林,"NT$5,939 - NT$8,258",4.5,146,https://media-cdn.tripadvisor.com/media/photo-s/15/c8/fe/cb/exterior.jpg,"免費停車, 免費高速上網 (WiFi), 游泳池, 有健身房的健身中心, 酒吧/酒廊, 提供上網服務的商務中心, 禁菸飯店, 乾洗服務, 停車, 免費網際網路, 網際網路, 屋頂游泳池, 餐廳, 洗衣服務","禁菸客房, 套房, 空調設施, 房務, 客房服務",25.09305,121.5292,
華泰瑞舍,"台北排名第 119 的超值住宿地點，共 1,200 家",https://www.tripadvisor.com.tw/Hotel_Review-g13808671-d2153570-Reviews-Gloria_Residence-Zhongshan_District_Taipei.html,25.136539459228516,121.50511169433594,"NT$3,752",林森北路359號,4.0,台北,中山區,"NT$4,268 - NT$8,660",4.5,379,https://media-cdn.tripadvisor.com/media/photo-s/08/02/f0/5b/gloria.jpg,"免費停車, 免費高速上網 (WiFi), 游泳池, 有健身房的健身中心, 自助式早餐, 機場接送, 提供上網服務的商務中心, 禮賓服務, 停車, 免費網際網路, 無線網路, 公用無線網路, 網際網路, 室內游泳池, 禁菸飯店, 乾洗服務, 洗衣服務","禁菸客房, 套房, 家庭房, 空調設施, 客房服務, 小廚房, 微波爐, 平板電視, 迷你吧, 冰箱",25.057447,121.52587,
宏都金殿大飯店,"台北排名第 120 的超值住宿地點，共 1,200 家",https://www.tripadvisor.com.tw/Hotel_Review-g13811269-d1219793-Reviews-Hotel_HD_Palace_Taipei-Da_an_Taipei.html,25.093050003051758,121.5291976928711,"NT$2,762",安和路二段100號,3.5,台北,大安,"NT$2,969 - NT$5,196",4.0,338,https://media-cdn.tripadvisor.com/media/photo-s/08/99/2e/3b/caption.jpg,"現場付費私人停車場, 免費高速上網 (WiFi), 提供早餐, 機場接送, 提供上網服務的商務中心, 傳真/影印, 禮賓服務, 禁菸飯店, 免費網際網路, 無線網路, 公用無線網路, 網際網路, 自助式早餐, 免費即溶咖啡, 24 小時服務櫃台, 乾洗服務, 洗衣服務","禁菸客房, 套房, 空調設施, 沙發, 電話, 冰箱, 平板電視, 免費衛浴用品, 衣櫃/壁櫥, 瓶裝水, 衣架, 私人浴室, 喚醒服務/鬧鐘, 吹風機",25.02832,121.54974,"NT$6,150"
寒舍艾麗酒店,"台北排名第 121 的超值住宿地點，共 1,200 家",https://www.tripadvisor.com.tw/Hotel_Review-g13808515-d5283499-Reviews-Humble_House_Taipei-Xinyi_District_Taipei.html,25.045730590820312,121.50623321533203,"NT$4,852",信義區松高路18號,4.0,台北,信義區,"NT$6,279 - NT$9,001",4.5,578,https://media-cdn.tripadvisor.com/media/photo-s/0e/c2/c6/07/exterior.jpg,"免費高速上網 (WiFi), 游泳池, 有健身房的健身中心, 酒吧/酒廊, 機場接送, 提供上網服務的商務中心, 會議設施, Spa, 免費網際網路, 無線網路, 網際網路, 屋頂游泳池, 室外游泳池, 餐廳, 自助式早餐, 宴會廳, 會議室, 禮賓服務, 禁菸飯店, 乾洗服務, 洗衣服務","禁菸客房, 套房, 空調設施, 客房服務, 迷你吧, 平板電視",25.038883,121.56733,
Home Hotel 大安,"台北排名第 122 的超值住宿地點，共 1,200 家",https://www.tripadvisor.com.tw/Hotel_Review-g13811269-d7997174-Reviews-Home_Hotel_DaAn-Da_an_Taipei.html,25.038883209228516,121.56732940673828,"NT$3,413",大安區復興南路一段219-2號,3.5,台北,大安,"NT$3,773 - NT$5,567",4.5,357,https://media-cdn.tripadvisor.com/media/photo-s/16/ba/75/b0/home-hotel.jpg,"免費停車, 停車, 免費高速上網 (WiFi), 酒吧/酒廊, 禮賓服務, 禁菸飯店, 乾洗服務, 洗衣服務, 免費網際網路, 無線網路, 公用無線網路, 網際網路, 餐廳, 自助式早餐","禁菸客房, 套房, 家庭房, 空調設施, 私人陽台, 冰箱, 平板電視",25.038988,121.54386,"NT$4,852"
君品酒店,"台北排名第 123 的超值住宿地點，共 1,200 家",https://www.tripadvisor.com.tw/Hotel_Review-g13806451-d1797213-Reviews-Palais_de_Chine_Hotel-Datong_Taipei.html,25.03898811340332,121.54386138916016,"NT$4,723",承德路一段3號 Palais De Chine Hotel,4.5,台北,大同,"NT$5,011 - NT$8,877",4.5,2564,https://media-cdn.tripadvisor.com/media/photo-s/0d/f8/36/38/2016-1226-16591500-largejpg.jpg,"免費停車, 免費高速上網 (WiFi), 有健身房的健身中心, 浴缸, 酒吧/酒廊, 兒童可享免費住宿, 免費接駁或計程車服務, 提供上網服務的商務中心, 停車, 免費網際網路, 無線網路, 網際網路, 餐廳, 提供早餐, 自助式早餐, 免費即溶咖啡, 機場接送, 巴士接駁服務, 計程車服務, 會議設施, 宴會廳, 會議室, 傳真/影印, 禮賓服務, 禁菸飯店, 管家服務, 24 小時服務櫃台, 乾洗服務, 洗衣服務, 燙衣服務","禁菸客房, 套房, 家庭房, 空調設施, 房務, 客房服務, 迷你吧, 平板電視, 保險箱, 冰箱",25.049334,121.51717,
阿樹國際旅店,"台北排名第 124 的超值住宿地點，共 1,200 家",https://www.tripadvisor.com.tw/Hotel_Review-g13806900-d12926686-Reviews-Artree_Hotel-Songshan_Taipei.html,25.049333572387695,121.51717376708984,"NT$3,564",八德路三段76號,4.0,台北,松山,"NT$4,114 - NT$7,330",4.5,121,https://media-cdn.tripadvisor.com/media/photo-s/10/ed/d8/c7/caption.jpg,"免費停車, 免費高速上網 (WiFi), 有健身房的健身中心, 免費早餐, 機場接送, 會議室, 禮賓服務, 禁菸飯店, 免費網際網路, 無線網路, 公用無線網路, 網際網路, 酒吧/酒廊, 餐廳, 提供早餐, 自助式早餐, 乾洗服務, 洗衣服務","禁菸客房, 套房, 家庭房, 空調設施, 迷你吧, 冰箱",25.04809,121.55264,
璞邸城市膠囊旅店,"台北排名第 125 的超值住宿地點，共 1,200 家",https://www.tripadvisor.com.tw/Hotel_Review-g13808853-d7912555-Reviews-Bouti_Capsule_Inn-Zhongzheng_District_Taipei.html,25.0480899810791,121.55264282226562,NT$919,重慶南路1段7號 中正區,2.5,台北,中正區,"NT$711 - NT$2,969",4.5,566,https://media-cdn.tripadvisor.com/media/photo-s/0c/cf/7d/3b/street--v13472247.jpg,"免費高速上網 (WiFi), 免費網際網路, 無線網路, 公用無線網路, 免費早餐, 禁菸飯店, 洗衣服務, 自助式洗衣, 網際網路","禁菸客房, 家庭房, 空調設施",25.0464,121.51337,"NT$3,602"
香格里拉台北遠東國際大飯店,"台北排名第 126 的超值住宿地點，共 1,200 家",https://www.tripadvisor.com.tw/Hotel_Review-g13811269-d302103-Reviews-Shangri_La_s_Far_Eastern_Plaza_Hotel_Taipei-Da_an_Taipei.html,25.04640007019043,121.51336669921875,"NT$7,700",敦化南路二段201號,5.0,台北,大安,"NT$7,331 - NT$12,805",4.5,2409,https://media-cdn.tripadvisor.com/media/photo-s/13/a5/ef/ff/caption.jpg,"免費停車, 免費高速上網 (WiFi), 游泳池, 有健身房的健身中心, 酒吧/酒廊, 兒童可享免費住宿, 保姆服務, 機場接送, 停車, 免費網際網路, 無線網路, 網際網路, 浴缸, 桑拿, 屋頂游泳池, 室內游泳池, 室外游泳池, 溫水游泳池, 餐廳, 提供早餐, 自助式早餐, 計程車服務, 提供上網服務的商務中心, 會議設施, 宴會廳, 會議室, Spa, 臉部療程, 按摩, 蒸氣室, 屋頂露台, 禮賓服務, 禁菸飯店, 管家服務, 乾洗服務, 洗衣服務, 燙衣服務, 擦鞋服務","禁菸客房, 套房, 家庭房, 空調設施, 房務, 客房服務, 迷你吧, 平板電視, 保險箱, VIP 客房設施, 冰箱",25.026558,121.54937,
西華飯店,"台北排名第 127 的超值住宿地點，共 1,200 家",https://www.tripadvisor.com.tw/Hotel_Review-g13806900-d302768-Reviews-The_Sherwood_Taipei-Songshan_Taipei.html,25.137746810913086,121.51493835449219,"NT$3,636",松山區民生東路三段111號,4.5,台北,松山,"NT$4,052 - NT$6,495",4.5,1172,https://media-cdn.tripadvisor.com/media/photo-s/09/45/bf/bc/executive-suite--v8741985.jpg,"免費停車, 免費高速上網 (WiFi), 游泳池, 有健身房的健身中心, 酒吧/酒廊, 機場接送, 提供上網服務的商務中心, 會議設施, 免費網際網路, 無線網路, 網際網路, 浴缸, 室內游泳池, 溫水游泳池, 餐廳, 自助式早餐, 免費即溶咖啡, 宴會廳, 會議室, Spa, 禮賓服務, 禁菸飯店, 24 小時服務櫃台, 乾洗服務, 洗衣服務","禁菸客房, 套房, 家庭房, 空調設施, 客房服務, 迷你吧, 平板電視",25.058088,121.54586,"NT$9,715"
亞都麗緻大飯店,"台北排名第 128 的超值住宿地點，共 1,200 家",https://www.tripadvisor.com.tw/Hotel_Review-g13808671-d300627-Reviews-The_Landis_Taipei-Zhongshan_District_Taipei.html,25.02655792236328,121.54936981201172,"NT$3,546",民權東路二段41號,4.5,台北,中山區,"NT$3,650 - NT$6,372",4.5,995,https://media-cdn.tripadvisor.com/media/photo-s/08/76/ac/01/caption.jpg,"免費停車, 免費高速上網 (WiFi), 有健身房的健身中心, 酒吧/酒廊, 機場接送, 提供上網服務的商務中心, 會議設施, Spa, 停車, 免費網際網路, 無線網路, 公用無線網路, 網際網路, 餐廳, 自助式早餐, 計程車服務, 宴會廳, 會議室, 傳真/影印, 禮賓服務, 禁菸飯店, 乾洗服務, 洗衣服務","禁菸客房, 套房, 家庭房, 空調設施, 房務, 客房服務, 迷你吧, 平板電視, 冰箱",25.062782,121.53003,"NT$7,700"
台北王朝大酒店,"台北排名第 129 的超值住宿地點，共 1,200 家",https://www.tripadvisor.com.tw/Hotel_Review-g13806900-d306449-Reviews-Sunworld_Dynasty_Hotel_Taipei-Songshan_Taipei.html,25.058088302612305,121.54586029052734,"NT$2,771",松山區敦化北路100號,3.5,台北,松山,"NT$2,691 - NT$6,403",4.0,1112,https://media-cdn.tripadvisor.com/media/photo-s/15/28/83/10/sunworld-dynasty-hotel.jpg,"免費停車, 免費高速上網 (WiFi), 游泳池, 有健身房的健身中心, 餐廳, 機場接送, 提供上網服務的商務中心, 會議設施, 免費網際網路, 無線網路, 公用無線網路, 網際網路, 浴缸, 成人游泳池, 室外游泳池, 溫水游泳池, 自助式早餐, 宴會廳, 會議室, Spa, 禮賓服務, 禁菸飯店, 乾洗服務, 洗衣服務","禁菸客房, 套房, 家庭房, 空調設施, 客房服務, 迷你吧, 冰箱, 平板電視",25.052717,121.54806,
日勝生加賀屋北投溫泉度假飯店,"台北排名第 130 的超值住宿地點，共 1,200 家",https://www.tripadvisor.com.tw/Hotel_Review-g13806427-d1905676-Reviews-Radium_Kagaya_International_Hotel-Beitou_Taipei.html,25.062782287597656,121.530029296875,"NT$7,578",北投區光明路236號,4.0,台北,北投,"NT$8,908 - NT$20,476",4.0,532,https://media-cdn.tripadvisor.com/media/photo-s/05/0c/06/49/caption.jpg,"免費停車, 免費高速上網 (WiFi), 浴缸, 免費早餐, 巴士接駁服務, 會議設施, 宴會廳, Spa, 免費網際網路, 無線網路, 網際網路, 酒吧/酒廊, 餐廳, 自助式早餐, 會議室, 禮賓服務, 禁菸飯店, 管家服務, 乾洗服務, 洗衣服務","禁菸客房, 套房, 家庭房, 空調設施, 客房服務, 冰箱, 平板電視",25.136335,121.50671,
敘美行旅,"台北排名第 131 的超值住宿地點，共 1,200 家",https://www.tripadvisor.com.tw/Hotel_Review-g13808853-d8634966-Reviews-Beauty_Hotels_Taipei_Hotel_B7_Journey-Zhongzheng_District_Taipei.html,25.052717208862305,121.54805755615234,"NT$1,216",重慶南路一段94號,3.0,台北,中正區,"NT$1,392 - NT$2,753",4.5,237,https://media-cdn.tripadvisor.com/media/photo-s/09/09/5a/a2/standard-twin-room.jpg,"免費高速上網 (WiFi), 免費網際網路, 無線網路, 餐廳, 提供早餐, 禁菸飯店, 乾洗服務, 洗衣服務, 公用無線網路, 網際網路","禁菸客房, 套房, 空調設施, 迷你吧, 冰箱, 平板電視",25.042753,121.513145,"NT$3,619"
大地清旅．旅店,"台北排名第 132 的超值住宿地點，共 1,200 家",https://www.tripadvisor.com.tw/Hotel_Review-g13808671-d6681999-Reviews-Horizon_Inn-Zhongshan_District_Taipei.html,25.136335372924805,121.50670623779297,"NT$1,378",長安東路二段246號4樓,3.0,台北,中山區,"NT$1,577 - NT$3,773",4.5,163,https://media-cdn.tripadvisor.com/media/photo-s/09/e1/0b/4a/caption.jpg,"免費高速上網 (WiFi), 免費網際網路, 無線網路, 免費早餐, 餐廳, 禁菸飯店, 洗衣服務, 自助式洗衣, 網際網路, 自助式早餐","禁菸客房, 套房, 家庭房, 空調設施, 平板電視",25.04791,121.54321,
HOTEL QUOTE Taipei,"台北排名第 133 的超值住宿地點，共 1,200 家",https://www.tripadvisor.com.tw/Hotel_Review-g13806900-d1569789-Reviews-HOTEL_QUOTE_Taipei-Songshan_Taipei.html,25.042753219604492,121.51314544677734,"NT$3,795",松山區南京東路三段333號,4.0,台北,松山,"NT$3,371 - NT$8,104",4.5,857,https://media-cdn.tripadvisor.com/media/photo-s/09/2d/2f/15/u-room--v9186830.jpg,"停車, 免費高速上網 (WiFi), 酒吧/酒廊, 機場接送, 提供上網服務的商務中心, 會議設施, 禮賓服務, 禁菸飯店, 免費網際網路, 無線網路, 公用無線網路, 網際網路, 餐廳, 自助式早餐, 會議室, 乾洗服務, 洗衣服務","禁菸客房, 套房, 家庭房, 遮光窗簾, 空調設施, 客房服務, 迷你吧, 平板電視",25.051985,121.547554,
北門臥客青年旅舍,"台北排名第 134 的超值住宿地點，共 1,200 家",https://www.tripadvisor.com.tw/Hotel_Review-g13806451-d7784672-Reviews-We_Come_Hostel-Datong_Taipei.html,25.047910690307617,121.543212890625,"NT$1,084",大同區甘谷街26號2樓,2.0,台北,大同,"NT$495 - NT$2,320",4.5,323,https://media-cdn.tripadvisor.com/media/photo-s/11/03/e2/df/common-area.jpg,"免費高速上網 (WiFi), 免費網際網路, 無線網路, 免費早餐, 自助式早餐, 禁菸飯店, 洗衣服務, 自助式洗衣, 公用無線網路, 網際網路","禁菸客房, 家庭房, 空調設施, 小廚房",25.052734,121.51093,"NT$1,378"
太空艙-信義館,"台北排名第 135 的超值住宿地點，共 1,200 家",https://www.tripadvisor.com.tw/Hotel_Review-g13808515-d11918208-Reviews-Space_Inn_Xinyi-Xinyi_District_Taipei.html,25.051984786987305,121.54755401611328,NT$699,信義區光復南路549號,2.0,台北,信義區,"NT$495 - NT$1,516",4.5,64,https://media-cdn.tripadvisor.com/media/photo-s/0e/1f/25/03/caption.jpg,"免費高速上網 (WiFi), 免費網際網路, 無線網路, 網際網路, 機場接送, 提供上網服務的商務中心","禁菸客房, 空調設施, 小廚房",25.031599,121.55757,"NT$3,795"
天閣酒店 - 台北信義,"台北排名第 136 的超值住宿地點，共 1,200 家",https://www.tripadvisor.com.tw/Hotel_Review-g13808515-d662919-Reviews-THE_Tango_Taipei_XinYi-Xinyi_District_Taipei.html,25.052734375,121.51093292236328,"NT$2,790",信義區忠孝東路五段297號,3.5,台北,信義區,"NT$3,371 - NT$5,815",4.0,299,https://media-cdn.tripadvisor.com/media/photo-s/0d/43/f8/55/tango-suite--v14034250.jpg,"免費高速上網 (WiFi), 有健身房的健身中心, 浴缸, 免費早餐, 提供上網服務的商務中心, 會議室, Spa, 禮賓服務, 免費網際網路, 無線網路, 公用無線網路, 網際網路, 自助式早餐, 禁菸飯店, 乾洗服務, 洗衣服務","禁菸客房, 套房, 空調設施, 客房服務, 迷你吧, 平板電視",25.040976,121.572914,
台北商旅慶城館,"台北排名第 137 的超值住宿地點，共 1,200 家",https://www.tripadvisor.com.tw/Hotel_Review-g13806900-d302966-Reviews-Les_Suites_Taipei_Ching_cheng-Songshan_Taipei.html,25.031599044799805,121.55757141113281,"NT$4,001",松山區慶城街12號 庆城街12号,4.5,台北,松山,"NT$4,732 - NT$8,135",4.5,963,https://media-cdn.tripadvisor.com/media/photo-s/18/e8/9d/31/2018-2019.jpg,"免費高速上網 (WiFi), 有健身房的健身中心, 免費早餐, 機場接送, 提供上網服務的商務中心, 會議設施, 禮賓服務, 禁菸飯店, 免費網際網路, 無線網路, 公用無線網路, 網際網路, 酒吧/酒廊, 自助式早餐, 免費即溶咖啡, 計程車服務, 會議室, 乾洗服務, 洗衣服務","禁菸客房, 套房, 家庭房, 空調設施, 保險箱, 迷你吧, 冰箱, 平板電視",25.052788,121.5451,
西門窩,"台北排名第 138 的超值住宿地點，共 1,200 家",https://www.tripadvisor.com.tw/Hotel_Review-g13806951-d7268882-Reviews-Ximen_WOW_Hostel-Wanhua_Taipei.html,25.04097557067871,121.57291412353516,NT$565,漢中街42號8樓,2.0,台北,萬華,"NT$433 - NT$1,175",4.5,182,https://media-cdn.tripadvisor.com/media/photo-s/07/04/3e/57/caption.jpg,"免費高速上網 (WiFi), 免費網際網路, 無線網路, 網際網路, 免費早餐, 自助式洗衣","禁菸客房, 空調設施",25.044188,121.50733,"NT$3,096"
建山大旅社,"台北排名第 139 的超值住宿地點，共 1,200 家",https://www.tripadvisor.com.tw/Hotel_Review-g13806451-d9570810-Reviews-Jian_Shan_Hotel-Datong_Taipei.html,25.05278778076172,121.54509735107422,"NT$1,204",大同區歸綏街182號,3.0,台北,大同,"NT$1,268 - NT$2,536",4.5,109,https://media-cdn.tripadvisor.com/media/photo-s/0a/29/de/04/caption.jpg,"免費高速上網 (WiFi), 免費網際網路, 無線網路, 網際網路, 禁菸飯店","禁菸客房, 空調設施, 冰箱, 平板電視",25.058197,121.51225,"NT$4,001"
卡樂町旅店,"台北排名第 140 的超值住宿地點，共 1,200 家",https://www.tripadvisor.com.tw/Hotel_Review-g13806951-d6622206-Reviews-Colormix_Hotel_Hostel-Wanhua_Taipei.html,25.044187545776367,121.50733184814453,"NT$1,060",萬華區內江街55巷22號,2.0,台北,萬華,"NT$959 - NT$3,062",4.5,324,https://media-cdn.tripadvisor.com/media/photo-s/11/4a/1c/92/colormix-hotel-hostel.jpg,"免費高速上網 (WiFi), 免費網際網路, 無線網路, 公用無線網路, 網際網路, 禁菸飯店, 自助式洗衣","禁菸客房, 家庭房, 空調設施, 微波爐, 冰箱",25.042568,121.50537,
紅米青年旅館,"台北排名第 141 的超值住宿地點，共 1,200 家",https://www.tripadvisor.com.tw/Hotel_Review-g13806451-d4191001-Reviews-Homey_Hostel_Taipei_Main_Station-Datong_Taipei.html,25.058197021484375,121.51225280761719,"NT$1,026",長安西路180號 7樓,2.0,台北,大同,"NT$650 - NT$2,010",4.5,311,https://media-cdn.tripadvisor.com/media/photo-s/0f/83/6f/7d/caption.jpg,"免費高速上網 (WiFi), 免費網際網路, 無線網路, 公用無線網路, 免費早餐, 禁菸飯店, 洗衣服務, 自助式洗衣, 網際網路","禁菸客房, 家庭房, 空調設施, 小廚房",25.05104,121.51595,
寒舍艾美酒店,"台北排名第 142 的超值住宿地點，共 1,200 家",https://www.tripadvisor.com.tw/Hotel_Review-g13808515-d1877829-Reviews-Le_Meridien_Taipei-Xinyi_District_Taipei.html,25.04256820678711,121.50537109375,"NT$7,290",信義區松仁路38號,4.5,台北,信義區,"NT$8,784 - NT$13,888",4.5,721,https://media-cdn.tripadvisor.com/media/photo-s/17/8c/fa/b7/guest-room.jpg,"免費停車, 免費網際網路, 游泳池, 有健身房的健身中心, 酒吧/酒廊, 機場接送, 提供上網服務的商務中心, 會議設施, 無線網路, 公用無線網路, 付費無線網路, 網際網路, 浴缸, 室內游泳池, 溫水游泳池, 餐廳, 自助式早餐, 宴會廳, 會議室, Spa, 禮賓服務, 禁菸飯店, 乾洗服務, 洗衣服務","禁菸客房, 套房, 家庭房, 空調設施, 客房服務, 迷你吧, 冰箱, 平板電視",25.038021,121.56798,
麗都飯店,"台北排名第 143 的超值住宿地點，共 1,200 家",https://www.tripadvisor.com.tw/Hotel_Review-g13811269-d582177-Reviews-Rido_Hotel_Taipei-Da_an_Taipei.html,25.051040649414062,121.51595306396484,"NT$2,627",信義路三段11號,3.5,台北,大安,"NT$2,289 - NT$4,578",4.0,362,https://media-cdn.tripadvisor.com/media/photo-s/09/4b/ff/8f/euro-brilliant-view-suite--v91942.jpg,"免費停車, 免費高速上網 (WiFi), 免費網際網路, 浴缸, 提供早餐, 禁菸飯店, 乾洗服務, 洗衣服務, 無線網路, 公用無線網路, 網際網路, 自助式早餐","禁菸客房, 空調設施, 冰箱, 平板電視",25.03386,121.53376,
和逸飯店‧台北民生館,"台北排名第 144 的超值住宿地點，共 1,200 家",https://www.tripadvisor.com.tw/Hotel_Review-g13808671-d4584261-Reviews-HOTEL_COZZI_Minsheng_Taipei-Zhongshan_District_Taipei.html,25.038021087646484,121.56797790527344,"NT$3,355",中山區民生東路二段178號,4.0,台北,中山區,"NT$3,712 - NT$5,536",4.5,364,https://media-cdn.tripadvisor.com/media/photo-s/15/dd/f5/a9/caption.jpg,"免費停車, 免費高速上網 (WiFi), 有健身房的健身中心, 免費早餐, 提供上網服務的商務中心, 會議設施, 禮賓服務, 禁菸飯店, 免費網際網路, 無線網路, 公用無線網路, 網際網路, 酒吧/酒廊, 餐廳, 提供早餐, 自助式早餐, 免費即溶咖啡, 會議室, 乾洗服務","禁菸客房, 套房, 家庭房, 空調設施, 客房服務, 迷你吧, 冰箱, 平板電視",25.057907,121.53644,
台北中山雅樂軒酒店,"台北排名第 145 的超值住宿地點，共 1,200 家",https://www.tripadvisor.com.tw/Hotel_Review-g13808671-d8859127-Reviews-Aloft_Taipei_Zhongshan-Zhongshan_District_Taipei.html,25.033859252929688,121.53376007080078,"NT$4,150",中山區雙城街1號,4.0,台北,中山區,"NT$4,083 - NT$7,454",4.5,456,https://media-cdn.tripadvisor.com/media/photo-s/0d/c5/00/76/aloft-taipei-zhongshan.jpg,"免費停車, 免費高速上網 (WiFi), 酒吧/酒廊, 會議室, 禮賓服務, 禁菸飯店, 乾洗服務, 洗衣服務, 免費網際網路, 無線網路, 公用無線網路, 網際網路, 餐廳, 提供早餐, 自助式早餐, 免費即溶咖啡, 屋頂酒吧","禁菸客房, 套房, 家庭房, 空調設施, 書桌, 客房服務, 冰箱, 平板電視",25.062925,121.52455,"NT$3,109"
北投麗禧溫泉酒店,"台北排名第 146 的超值住宿地點，共 1,200 家",https://www.tripadvisor.com.tw/Hotel_Review-g13806427-d2095241-Reviews-Grand_View_Resort_Beitou-Beitou_Taipei.html,25.057907104492188,121.53643798828125,"NT$9,715",北投區幽雅路30號,5.0,台北,北投,"NT$11,444 - NT$21,620",4.5,873,https://media-cdn.tripadvisor.com/media/photo-s/0d/a5/0b/40/caption.jpg,"免費停車, 免費高速上網 (WiFi), 游泳池, 有健身房的健身中心, 免費早餐, 免費接駁或計程車服務, 提供上網服務的商務中心, 會議設施, 停車, 免費網際網路, 無線網路, 公用無線網路, 網際網路, 浴缸, 桑拿, 成人游泳池, 室外游泳池, 溫水游泳池, 餐廳, 提供早餐, 自助式早餐, 巴士接駁服務, 宴會廳, 會議室, Spa, 溫泉浴池, 禮賓服務, 禁菸飯店, 管家服務, 乾洗服務, 洗衣服務","禁菸客房, 套房, 家庭房, 空調設施, 私人陽台, 客房服務, 迷你吧, 平板電視, 保險箱, 冰箱",25.137747,121.51494,"NT$3,570"
台北北門窩泊旅,"台北排名第 147 的超值住宿地點，共 1,200 家",https://www.tripadvisor.com.tw/Hotel_Review-g13806451-d10541961-Reviews-Beimen_Wow_Poshtel-Datong_Taipei.html,25.062925338745117,121.52455139160156,NT$644,大同區太原路92巷2-1號,2.0,台北,大同,"NT$464 - NT$1,639",4.5,156,https://media-cdn.tripadvisor.com/media/photo-s/0b/e1/a7/3b/getlstd-property-photo.jpg,"免費高速上網 (WiFi), 免費網際網路, 無線網路, 免費早餐, 機場接送, 禁菸飯店, 洗衣服務, 自助式洗衣, 公用無線網路, 網際網路","禁菸客房, 家庭房, 空調設施, 小廚房",25.052237,121.515495,
町記憶旅店,"台北排名第 148 的超值住宿地點，共 1,200 家",https://www.tripadvisor.com.tw/Hotel_Review-g13806951-d6366729-Reviews-Cho_Hotel-Wanhua_Taipei.html,25.137746810913086,121.51493835449219,"NT$1,212",昆明街119號,3.5,台北,萬華,"NT$1,577 - NT$3,897",4.5,438,https://media-cdn.tripadvisor.com/media/photo-s/15/26/5f/0d/caption.jpg,"免費高速上網 (WiFi), 免費網際網路, 無線網路, 公用無線網路, 提供早餐, 禮賓服務, 禁菸飯店, 自助式洗衣, 網際網路","禁菸客房, 套房, 家庭房, 空調設施, 冰箱, 平板電視",25.04192,121.50471,"NT$9,715"
富園國際商務飯店,"台北排名第 149 的超值住宿地點，共 1,200 家",https://www.tripadvisor.com.tw/Hotel_Review-g13806951-d598920-Reviews-Rich_Garden_Hotel-Wanhua_Taipei.html,25.052236557006836,121.51549530029297,"NT$1,775",中華路一段178號,3.0,台北,萬華,"NT$1,949 - NT$4,021",4.5,155,https://media-cdn.tripadvisor.com/media/photo-s/0e/f5/50/5c/rg-double-room--v16221727.jpg,"免費高速上網 (WiFi), 免費網際網路, 有健身房的健身中心, 免費早餐, 提供上網服務的商務中心, 禁菸飯店, 洗衣服務, 自助式洗衣, 無線網路, 網際網路, 餐廳, 自助式早餐","禁菸客房, 空調設施, 客房服務",25.039248,121.507126,NT$644
天閣酒店 - 台北南西,"台北排名第 150 的超值住宿地點，共 1,200 家",https://www.tripadvisor.com.tw/Hotel_Review-g13808671-d659162-Reviews-THE_Tango_Taipei_NanShi-Zhongshan_District_Taipei.html,25.041919708251953,121.50470733642578,"NT$2,889",中山區南京西路3號,3.5,台北,中山區,"NT$3,279 - NT$5,598",4.5,462,https://media-cdn.tripadvisor.com/media/photo-s/0d/c7/c1/fa/caption.jpg,"免費高速上網 (WiFi), 浴缸, 免費早餐, 提供上網服務的商務中心, Spa, 禮賓服務, 禁菸飯店, 乾洗服務, 免費網際網路, 無線網路, 公用無線網路, 網際網路, 餐廳, 自助式早餐, 洗衣服務","禁菸客房, 套房, 空調設施, 保險箱, 微波爐, 迷你吧, 冰箱, 平板電視",25.052702,121.52165,
Home Hotel,"台北排名第 151 的超值住宿地點，共 1,200 家",https://www.tripadvisor.com.tw/Hotel_Review-g13808515-d2195275-Reviews-Home_Hotel_Xinyi_Taipei-Xinyi_District_Taipei.html,25.045730590820312,121.50623321533203,"NT$5,001",松仁路90號,4.5,台北,信義區,"NT$5,227 - NT$7,702",4.0,437,https://media-cdn.tripadvisor.com/media/photo-s/09/9b/d1/cf/home-hotel.jpg,"免費高速上網 (WiFi), 有健身房的健身中心, 酒吧/酒廊, 夜店/ DJ, 機場接送, 提供上網服務的商務中心, 會議室, 禮賓服務, 免費網際網路, 無線網路, 公用無線網路, 網際網路, 餐廳, 自助式早餐, 禁菸飯店, 乾洗服務, 洗衣服務","禁菸客房, 套房, 空調設施, 客房服務, 迷你吧, 平板電視",25.035036,121.5677,
太平洋商旅,"台北排名第 152 的超值住宿地點，共 1,200 家",https://www.tripadvisor.com.tw/Hotel_Review-g13808515-d505594-Reviews-Pacific_Business_Hotel-Xinyi_District_Taipei.html,25.035036087036133,121.56770324707031,"NT$3,356",信義區光復南路495號11樓,3.5,台北,信義區,"NT$3,433 - NT$6,866",4.5,1058,https://media-cdn.tripadvisor.com/media/photo-s/12/98/7e/0f/101.jpg,"停車, 免費高速上網 (WiFi), 有健身房的健身中心, 餐廳, 機場接送, 提供上網服務的商務中心, 會議設施, 24 小時保全, 免費網際網路, 無線網路, 公用無線網路, 網際網路, 提供早餐, 自助式早餐, 免費即溶咖啡, 會議室, 行李存放, 禮賓服務, 外幣兌換服務, 禮品商店, 禁菸飯店, 24 小時辦理入住, 24 小時服務櫃台, 乾洗服務, 洗衣服務, 自助式洗衣, 洗衣機","山景, 禁菸客房, 家庭房, 遮光窗簾, 空調設施, 書桌, 咖啡壺/茶壺, 平板電視, 城市景觀, 房務, 私人陽台, 保險箱, 電話, 瓶裝水, 熨斗, 冰箱, 吹風機",25.032297,121.55817,
大地酒店,"台北排名第 153 的超值住宿地點，共 1,200 家",https://www.tripadvisor.com.tw/Hotel_Review-g13806427-d6440283-Reviews-The_Gaia_Hotel_Taipei-Beitou_Taipei.html,25.032297134399414,121.55816650390625,"NT$6,540",北投區奇岩路1號,4.5,台北,北投,"NT$7,114 - NT$15,001",4.5,520,https://media-cdn.tripadvisor.com/media/photo-s/12/41/97/38/caption.jpg,"免費停車, 免費高速上網 (WiFi), 游泳池, 有健身房的健身中心, 免費早餐, 巴士接駁服務, 提供上網服務的商務中心, 會議設施, 停車, 免費網際網路, 無線網路, 公用無線網路, 網際網路, 浴缸, 室內游泳池, 餐廳, 提供早餐, 自助式早餐, 宴會廳, 會議室, Spa, 溫泉浴池, 行李存放, 禮賓服務, 禁菸飯店, 乾洗服務, 洗衣服務","禁菸客房, 套房, 家庭房, 空調設施, 客房服務, 迷你吧, 冰箱, 平板電視",25.134714,121.50713,"NT$3,356"
二十輪旅店 - 大安店,"台北排名第 154 的超值住宿地點，共 1,200 家",https://www.tripadvisor.com.tw/Hotel_Review-g13811269-d8555269-Reviews-Swiio_Hotel_Daan-Da_an_Taipei.html,25.134714126586914,121.50713348388672,"NT$3,437",大安區大安路一段185號,3.5,台北,大安,"NT$3,217 - NT$7,794",5.0,539,https://media-cdn.tripadvisor.com/media/photo-s/09/e0/da/b8/caption.jpg,"免費高速上網 (WiFi), 免費網際網路, 免費早餐, 機場接送, 屋頂露台, 禮賓服務, 乾洗服務, 洗衣服務, 無線網路, 公用無線網路, 網際網路, 餐廳, 禁菸飯店","禁菸客房, 空調設施, 迷你吧, 冰箱, 平板電視",25.03607,121.54603,"NT$7,541"
台北怡亨酒店,"台北排名第 155 的超值住宿地點，共 1,200 家",https://www.tripadvisor.com.tw/Hotel_Review-g13811269-d1395608-Reviews-Hotel_Eclat_Taipei-Da_an_Taipei.html,25.036069869995117,121.54602813720703,"NT$4,158",大安區敦化南路一段370號,4.5,台北,大安,"NT$4,392 - NT$7,702",4.5,1200,https://media-cdn.tripadvisor.com/media/photo-s/17/2c/5a/6b/caption.jpg,"免費停車, 免費高速上網 (WiFi), 酒吧/酒廊, 機場接送, 會議設施, 會議室, 禮賓服務, 禁菸飯店, 免費網際網路, 無線網路, 公用無線網路, 網際網路, 餐廳, 自助式早餐, 免費即溶咖啡, 計程車服務, 24 小時服務櫃台, 乾洗服務, 洗衣服務","禁菸客房, 套房, 空調設施, 房務, 客房服務, 迷你吧, 冰箱, 平板電視",25.03357,121.54824,
夾腳拖的家-台北車站,"台北排名第 156 的超值住宿地點，共 1,200 家",https://www.tripadvisor.com.tw/Hotel_Review-g13806451-d2182310-Reviews-Flip_Flop_Hostel_Main_Station-Datong_Taipei.html,25.0335693359375,121.5482406616211,NT$760,大同區華陰街103號,2.0,台北,大同,"NT$464 - NT$2,227",4.5,207,https://media-cdn.tripadvisor.com/media/photo-s/19/2c/fe/3d/lobby.jpg,"免費高速上網 (WiFi), 免費網際網路, 腳踏車遊覽, 飛鏢, 晚間娛樂, 限成人, 禁菸飯店, 自助式洗衣, 無線網路, 網際網路, 步行遊覽, 桌遊/拼圖, 公共浴室, 共用廚房, 雨傘","城市景觀, 禁菸客房, 遮光窗簾, 空調設施, 書桌, 用餐區, 小廚房, 吹風機, 房務, 衣架, 微波爐, 冰箱",25.049816,121.51732,
北投老爺酒店,"台北排名第 157 的超值住宿地點，共 1,200 家",https://www.tripadvisor.com.tw/Hotel_Review-g13806427-d7395723-Reviews-Hotel_Royal_Beitou-Beitou_Taipei.html,25.137746810913086,121.51493835449219,"NT$7,207",北投區中和街2號,4.5,台北,北投,"NT$6,557 - NT$15,620",4.5,263,https://media-cdn.tripadvisor.com/media/photo-s/0a/fa/57/f5/caption.jpg,"免費停車, 免費高速上網 (WiFi), 有健身房的健身中心, 浴缸, 免費早餐, 會議設施, 會議室, Spa, 免費網際網路, 無線網路, 公用無線網路, 網際網路, 室內游泳池, 酒吧/酒廊, 餐廳, 提供早餐, 自助式早餐, 禮賓服務, 禁菸飯店, 乾洗服務, 洗衣服務","禁菸客房, 套房, 家庭房, 空調設施, 客房服務, 迷你吧, 冰箱, 平板電視",25.13748,121.50369,"NT$9,715"
杜萊根國際青年旅舍,"台北排名第 158 的超值住宿地點，共 1,200 家",https://www.tripadvisor.com.tw/Hotel_Review-g13806900-d7399045-Reviews-Sleepy_Dragon_Hostel-Songshan_Taipei.html,25.049816131591797,121.51731872558594,NT$975,松山區南京東路五段399號7樓,2.0,台北,松山,"NT$526 - NT$1,268",5.0,141,https://media-cdn.tripadvisor.com/media/photo-s/0b/17/91/03/caption.jpg,"免費高速上網 (WiFi), 免費網際網路, 免費早餐, 酒吧/酒廊, 宴會廳, 禁菸飯店, 洗衣服務, 自助式洗衣, 無線網路, 公用無線網路, 網際網路","禁菸客房, 家庭房, 空調設施, 小廚房",25.05148,121.56963,
賦樂旅居,"台北排名第 159 的超值住宿地點，共 1,200 家",https://www.tripadvisor.com.tw/Hotel_Review-g13811269-d8398891-Reviews-Hotel_Proverbs_Taipei-Da_an_Taipei.html,25.137479782104492,121.50369262695312,"NT$6,061",大安區大安路一段56號,4.0,台北,大安,"NT$6,866 - NT$9,465",4.5,516,https://media-cdn.tripadvisor.com/media/photo-s/09/66/c4/f5/photo2jpg.jpg,"免費停車, 免費高速上網 (WiFi), 游泳池, 屋頂游泳池, 酒吧/酒廊, 機場接送, 提供上網服務的商務中心, 會議室, 免費網際網路, 無線網路, 公用無線網路, 網際網路, 室外游泳池, 餐廳, 自助式早餐, 屋頂露台, 禮賓服務, 禁菸飯店, 24 小時服務櫃台, 乾洗服務, 洗衣服務","禁菸客房, 套房, 遮光窗簾, 空調設施, 私人陽台, 客房服務, 迷你吧, 平板電視, 冰箱",25.04295,121.54611,
途中台北國際青年旅舍,"台北排名第 160 的超值住宿地點，共 1,200 家",https://www.tripadvisor.com.tw/Hotel_Review-g13806427-d3908090-Reviews-On_My_Way_Taipei_Hostel-Beitou_Taipei.html,25.05147933959961,121.56963348388672,"NT$1,102",北投區光明路82號,2.0,台北,北投,"NT$557 - NT$1,577",4.5,200,https://media-cdn.tripadvisor.com/media/photo-s/03/ab/ae/f5/caption.jpg,"免費高速上網 (WiFi), 免費網際網路, 無線網路, 網際網路, 禁菸飯店, 自助式洗衣","禁菸客房, 空調設施, 小廚房",25.132996,121.5006,
台北凱撒大飯店,"台北排名第 161 的超值住宿地點，共 1,200 家",https://www.tripadvisor.com.tw/Hotel_Review-g13808853-d306433-Reviews-Caesar_Park_Taipei-Zhongzheng_District_Taipei.html,25.042949676513672,121.54611206054688,"NT$3,202",中正區忠孝西路一段38號,4.0,台北,中正區,"NT$3,217 - NT$5,598",4.0,1833,https://media-cdn.tripadvisor.com/media/photo-s/18/b3/22/37/caption.jpg,"免費高速上網 (WiFi), 有健身房的健身中心, 餐廳, 機場接送, 提供上網服務的商務中心, 會議設施, Spa, 禮賓服務, 免費網際網路, 無線網路, 網際網路, 自助式早餐, 宴會廳, 會議室, 禁菸飯店, 乾洗服務, 洗衣服務","禁菸客房, 套房, 家庭房, 空調設施, 客房服務, 冰箱, 平板電視",25.046288,121.51676,"NT$6,035"
台北福華大飯店,"台北排名第 162 的超值住宿地點，共 1,200 家",https://www.tripadvisor.com.tw/Hotel_Review-g13811269-d301558-Reviews-Howard_Plaza_Hotel_Taipei-Da_an_Taipei.html,25.13299560546875,121.50060272216797,"NT$2,597",大安區仁愛路三段160號,4.5,台北,大安,"NT$3,433 - NT$7,238",4.0,1197,https://media-cdn.tripadvisor.com/media/photo-s/14/d6/e5/d2/exterior.jpg,"免費停車, 免費高速上網 (WiFi), 游泳池, 有健身房的健身中心, 酒吧/酒廊, 機場接送, 提供上網服務的商務中心, 會議設施, 免費網際網路, 無線網路, 網際網路, 室外游泳池, 餐廳, 自助式早餐, 計程車服務, 宴會廳, 會議室, Spa, 禮賓服務, 禁菸飯店, 24 小時服務櫃台, 乾洗服務, 洗衣服務","禁菸客房, 套房, 家庭房, 空調設施, 客房服務, 迷你吧, 平板電視",25.037598,121.54306,
富驛時尚酒店 - 台北南京東路館,"台北排名第 163 的超值住宿地點，共 1,200 家",https://www.tripadvisor.com.tw/Hotel_Review-g13808671-d2313699-Reviews-FX_Hotel_Taipei_Nanjing_East_Road-Zhongshan_District_Taipei.html,25.046287536621094,121.51676177978516,"NT$1,849",中山區南京東路三段131號,4.0,台北,中山區,"NT$1,856 - NT$3,650",4.0,575,https://media-cdn.tripadvisor.com/media/photo-s/04/21/76/b5/fx-hotel-taipei-nanjing.jpg,"免費停車, 免費高速上網 (WiFi), 有健身房的健身中心, 餐廳, 提供上網服務的商務中心, 會議設施, 禮賓服務, 禁菸飯店, 停車, 免費網際網路, 無線網路, 網際網路, 自助式早餐, 會議室, 乾洗服務, 洗衣服務","禁菸客房, 套房, 家庭房, 空調設施, 客房服務, 保險箱, 平板電視",25.052172,121.54089,"NT$3,284"
台北馥敦-復南館,"台北排名第 164 的超值住宿地點，共 1,200 家",https://www.tripadvisor.com.tw/Hotel_Review-g13811269-d503406-Reviews-Taipei_Fullerton_Hotel_South-Da_an_Taipei.html,25.03759765625,121.54306030273438,"NT$2,708",復興南路二段41號,4.0,台北,大安,"NT$3,093 - NT$5,723",4.0,363,https://media-cdn.tripadvisor.com/media/photo-s/0e/1e/12/d6/fullerton-room-with-shower--v1532.jpg,"免費停車, 免費高速上網 (WiFi), 有健身房的健身中心, 免費早餐, 提供上網服務的商務中心, 會議設施, Spa, 禮賓服務, 免費網際網路, 無線網路, 公用無線網路, 網際網路, 餐廳, 提供早餐, 自助式早餐, 會議室, 禁菸飯店, 乾洗服務, 洗衣服務","禁菸客房, 套房, 家庭房, 空調設施, 客房服務, 迷你吧, 冰箱, 平板電視",25.031412,121.54379,"NT$3,600"
神旺大飯店,"台北排名第 165 的超值住宿地點，共 1,200 家",https://www.tripadvisor.com.tw/Hotel_Review-g13811269-d477942-Reviews-San_Want-Da_an_Taipei.html,25.05217170715332,121.5408935546875,"NT$2,684",忠孝東路四段172號,3.5,台北,大安,"NT$2,846 - NT$4,980",4.0,670,https://media-cdn.tripadvisor.com/media/photo-s/09/1c/a7/2d/executive-single-room--v8747458.jpg,"免費高速上網 (WiFi), 有健身房的健身中心, 酒吧/酒廊, 提供上網服務的商務中心, 會議設施, 禮賓服務, 禁菸飯店, 乾洗服務, 免費網際網路, 無線網路, 網際網路, 餐廳, 自助式早餐, 宴會廳, 會議室, 洗衣服務","禁菸客房, 套房, 家庭房, 空調設施, 客房服務, 平板電視",25.041414,121.55095,"NT$2,216"
柯達大飯店台北二店,"台北排名第 166 的超值住宿地點，共 1,200 家",https://www.tripadvisor.com.tw/Hotel_Review-g13808671-d1175000-Reviews-K_Hotel_Taipei_II-Zhongshan_District_Taipei.html,25.03141212463379,121.54379272460938,"NT$1,896",中山區中山北路二段139號,3.5,台北,中山區,"NT$2,567 - NT$4,609",4.0,169,https://media-cdn.tripadvisor.com/media/photo-s/13/cf/dd/e6/caption.jpg,"免費高速上網 (WiFi), 免費早餐, 保姆服務, 兒童活動 (適合兒童/家庭), 機場接送, 禁菸飯店, 乾洗服務, 洗衣服務, 免費網際網路, 無線網路, 公用無線網路, 網際網路, 餐廳, 自助式早餐","禁菸客房, 套房, 家庭房, 空調設施, 迷你吧, 冰箱",25.06169,121.52296,"NT$2,708"
星辰大飯店,"台北排名第 167 的超值住宿地點，共 1,200 家",https://www.tripadvisor.com.tw/Hotel_Review-g13808853-d1542362-Reviews-Citizen_Hotel-Zhongzheng_District_Taipei.html,25.041414260864258,121.55094909667969,"NT$1,725",中正區金山南路一段80號,3.0,台北,中正區,"NT$1,949 - NT$3,031",4.0,106,https://media-cdn.tripadvisor.com/media/photo-s/10/3a/9c/a9/caption.jpg,"免費停車, 免費高速上網 (WiFi), 免費網際網路, 無線網路, 免費早餐, 自助式早餐, 禁菸飯店, 洗衣服務, 公用無線網路, 網際網路","禁菸客房, 空調設施, 冰箱, 平板電視",25.03649,121.527695,
台北東旅,"台北排名第 168 的超值住宿地點，共 1,200 家",https://www.tripadvisor.com.tw/Hotel_Review-g13806900-d12463118-Reviews-Hotel_East_Taipei-Songshan_Taipei.html,25.061689376831055,121.52295684814453,"NT$2,048",松山區南京東路五段97號,3.5,台北,松山,"NT$2,505 - NT$4,578",4.5,680,https://media-cdn.tripadvisor.com/media/photo-s/10/42/3b/42/caption.jpg,"免費高速上網 (WiFi), 免費網際網路, 免費早餐, 餐廳, 機場接送, 禁菸飯店, 洗衣服務, 自助式洗衣, 無線網路, 網際網路, 提供早餐, 免費即溶咖啡","禁菸客房, 套房, 空調設施, 迷你吧, 冰箱",25.051605,121.56035,
南陽街壹號旅店,"台北排名第 169 的超值住宿地點，共 1,200 家",https://www.tripadvisor.com.tw/Hotel_Review-g13808853-d10832293-Reviews-NYS_Loft_Hotel-Zhongzheng_District_Taipei.html,25.036489486694336,121.52769470214844,"NT$1,177",南陽街1號3F,3.0,台北,中正區,"NT$1,052 - NT$2,536",4.0,104,https://media-cdn.tripadvisor.com/media/photo-s/0c/ea/83/1f/getlstd-property-photo.jpg,"免費高速上網 (WiFi), 免費網際網路, 無線網路, 網際網路, 禁菸飯店, 洗衣服務","禁菸客房, 套房, 空調設施",25.0458,121.51607,
洛碁大飯店驛,"台北排名第 170 的超值住宿地點，共 1,200 家",https://www.tripadvisor.com.tw/Hotel_Review-g13808853-d7143096-Reviews-Green_World_Station-Zhongzheng_District_Taipei.html,25.051605224609375,121.56034851074219,"NT$2,256",重慶南路一段21號,3.5,台北,中正區,"NT$2,722 - NT$5,598",4.0,176,https://media-cdn.tripadvisor.com/media/photo-s/0c/6e/ba/8f/caption.jpg,"免費高速上網 (WiFi), 免費網際網路, 無線網路, 網際網路, 免費早餐, 餐廳, 自助式早餐, 禁菸飯店","禁菸客房, 空調設施, 平板電視",25.045887,121.51321,
松哖酒店,"台北排名第 171 的超值住宿地點，共 1,200 家",https://www.tripadvisor.com.tw/Hotel_Review-g13811269-d7360936-Reviews-Sonnien_Hotel-Da_an_Taipei.html,25.045799255371094,121.51606750488281,"NT$3,030",大安區仁愛路三段八號,3.0,台北,大安,"NT$3,062 - NT$3,959",4.5,148,https://media-cdn.tripadvisor.com/media/photo-s/0c/a8/da/4d/lobby--v13474387.jpg,"免費停車, 免費高速上網 (WiFi), 免費網際網路, 免費早餐, 酒吧/酒廊, 禁菸飯店, 乾洗服務, 洗衣服務, 無線網路, 公用無線網路, 網際網路, 餐廳, 自助式早餐","禁菸客房, 套房, 家庭房, 空調設施, 迷你吧, 冰箱, 平板電視",25.03783,121.53358,
洛碁大飯店建北館,"台北排名第 172 的超值住宿地點，共 1,200 家",https://www.tripadvisor.com.tw/Hotel_Review-g13808671-d3605134-Reviews-Green_World_Hotel_Jian_Pei_Suites-Zhongshan_District_Taipei.html,25.045886993408203,121.5132064819336,"NT$2,387",建國北路一段140號,3.5,台北,中山區,"NT$1,670 - NT$4,980",4.0,197,https://media-cdn.tripadvisor.com/media/photo-s/0a/1e/3a/7b/street--v10499504.jpg,"停車, 免費高速上網 (WiFi), 免費網際網路, 免費早餐, 保姆服務, 禁菸飯店, 乾洗服務, 洗衣服務, 無線網路, 網際網路, 餐廳, 自助式早餐","禁菸客房, 套房, 空調設施, 迷你吧, 冰箱",25.050978,121.53657,
康華飯店,"台北排名第 173 的超值住宿地點，共 1,200 家",https://www.tripadvisor.com.tw/Hotel_Review-g13808671-d306443-Reviews-Golden_China_Hotel-Zhongshan_District_Taipei.html,25.037830352783203,121.53357696533203,"NT$2,570",松江路306號,4.0,台北,中山區,"NT$2,598 - NT$4,485",4.0,351,https://media-cdn.tripadvisor.com/media/photo-s/0c/fc/1c/47/twin-deluxe--v14032179.jpg,"免費停車, 免費高速上網 (WiFi), 浴缸, 免費早餐, 提供上網服務的商務中心, 會議室, 禮賓服務, 禁菸飯店, 免費網際網路, 無線網路, 公用無線網路, 網際網路, 酒吧/酒廊, 餐廳, 自助式早餐, 乾洗服務, 洗衣服務","禁菸客房, 套房, 家庭房, 空調設施, 客房服務, 冰箱, 平板電視",25.060226,121.533005,
國賓大飯店,"台北排名第 174 的超值住宿地點，共 1,200 家",https://www.tripadvisor.com.tw/Hotel_Review-g13808671-d306432-Reviews-Ambassador_Hotel_Taipei-Zhongshan_District_Taipei.html,25.05097770690918,121.53656768798828,"NT$3,725",中山北路二段63號,4.5,台北,中山區,"NT$4,206 - NT$8,196",4.0,875,https://media-cdn.tripadvisor.com/media/photo-s/15/14/b0/48/pool-side-room-at-the.jpg,"免費停車, 免費高速上網 (WiFi), 游泳池, 有健身房的健身中心, 酒吧/酒廊, 機場接送, 提供上網服務的商務中心, 會議設施, 免費網際網路, 無線網路, 網際網路, 浴缸, 室外游泳池, 餐廳, 自助式早餐, 宴會廳, 會議室, 禮賓服務, 禁菸飯店, 乾洗服務, 洗衣服務","禁菸客房, 套房, 家庭房, 空調設施, 客房服務, 迷你吧, 平板電視",25.056814,121.5228,
京站國際酒店式公寓,"台北排名第 175 的超值住宿地點，共 1,200 家",https://www.tripadvisor.com.tw/Hotel_Review-g13806451-d2105726-Reviews-ITaipei_Service_Apartment-Datong_Taipei.html,25.060226440429688,121.53300476074219,"NT$1,843",市民大道一段209號 1樓,3.5,台北,大同,"NT$2,134 - NT$5,134",4.0,319,https://media-cdn.tripadvisor.com/media/photo-s/0e/1d/f0/09/deluxe-double-purple--v15328024.jpg,"免費高速上網 (WiFi), 免費網際網路, 無線網路, 網際網路, 禮賓服務, 禁菸飯店, 洗衣服務, 自助式洗衣","禁菸客房, 套房, 空調設施, 私人陽台, 小廚房, 冰箱, 平板電視",25.048859,121.51858,
豪麗大飯店,"台北排名第 176 的超值住宿地點，共 1,200 家",https://www.tripadvisor.com.tw/Hotel_Review-g13811269-d633536-Reviews-Royal_Palace_Hotel-Da_an_Taipei.html,25.056814193725586,121.52279663085938,"NT$2,420",大安路一段81-1號,3.5,台北,大安,"NT$2,598 - NT$4,918",4.0,223,https://media-cdn.tripadvisor.com/media/photo-s/05/1b/81/bc/triple-room.jpg,"免費高速上網 (WiFi), 有健身房的健身中心, 餐廳, 提供上網服務的商務中心, 禮賓服務, 禁菸飯店, 乾洗服務, 洗衣服務, 免費網際網路, 無線網路, 網際網路, 自助式早餐, 自助式洗衣","禁菸客房, 套房, 家庭房, 空調設施, 平板電視",25.041037,121.54629,"NT$3,723"
天閣酒店 - 台北林森,"台北排名第 177 的超值住宿地點，共 1,200 家",https://www.tripadvisor.com.tw/Hotel_Review-g13808671-d729767-Reviews-Tango_Hotel_Taipei_Lin_Sen-Zhongshan_District_Taipei.html,25.048858642578125,121.5185775756836,"NT$2,595",中山區中山北路一段83巷15號,3.5,台北,中山區,"NT$3,124 - NT$6,433",4.0,167,https://media-cdn.tripadvisor.com/media/photo-s/0f/4c/95/ba/premium-suite--v16495425.jpg,"免費停車, 免費高速上網 (WiFi), 有健身房的健身中心, 浴缸, 自助式早餐, 提供上網服務的商務中心, 會議室, 禁菸飯店, 免費網際網路, 無線網路, 網際網路, 乾洗服務, 洗衣服務","禁菸客房, 空調設施, 平板電視",25.05009,121.5244,
昰美精品飯店,"台北排名第 178 的超值住宿地點，共 1,200 家",https://www.tripadvisor.com.tw/Hotel_Review-g13806879-d1760084-Reviews-Beauty_Hotels_Taipei_Beautique_Hotel-Shilin_Taipei.html,25.04103660583496,121.5462875366211,"NT$1,472",士林區天玉街38巷14號,3.5,台北,士林,"NT$1,732 - NT$3,804",4.5,128,https://media-cdn.tripadvisor.com/media/photo-s/10/0b/1d/e5/elite-room--v16931088.jpg,"免費停車, 免費高速上網 (WiFi), 有健身房的健身中心, 餐廳, 機場接送, 禮賓服務, 禁菸飯店, 乾洗服務, 免費網際網路, 無線網路, 公用無線網路, 網際網路, 自助式早餐, 洗衣服務, 自助式洗衣","禁菸客房, 家庭房, 空調設施, 冰箱",25.120422,121.52951,"NT$2,420"
福泰桔子商務旅館 - 林森店,"台北排名第 179 的超值住宿地點，共 1,200 家",https://www.tripadvisor.com.tw/Hotel_Review-g13808671-d1673293-Reviews-Orange_Hotel_Linsen_Taipei-Zhongshan_District_Taipei.html,25.050090789794922,121.52439880371094,"NT$1,612",中山區林森北路139號,3.0,台北,中山區,"NT$1,794 - NT$2,722",4.0,224,https://media-cdn.tripadvisor.com/media/photo-s/06/a5/28/e6/caption.jpg,"免費高速上網 (WiFi), 免費網際網路, 無線網路, 網際網路, 自助式早餐, 禁菸飯店, 洗衣服務","禁菸客房, 空調設施, 保險箱, 平板電視",25.051304,121.52521,
長富時尚旅店,"台北排名第 180 的超值住宿地點，共 1,200 家",https://www.tripadvisor.com.tw/Hotel_Review-g13808671-d3807478-Reviews-Homey_House-Zhongshan_District_Taipei.html,25.12042236328125,121.52951049804688,"NT$1,598",長春路56號,3.0,台北,中山區,"NT$1,794 - NT$3,155",4.5,106,https://media-cdn.tripadvisor.com/media/photo-s/14/eb/d7/d2/getlstd-property-photo.jpg,"免費高速上網 (WiFi), 免費網際網路, 無線網路, 機場接送, 巴士接駁服務, 禁菸飯店, 洗衣服務, 自助式洗衣, 網際網路","禁菸客房, 套房, 空調設施, 客房服務",25.054968,121.52595,"NT$1,472"
趣旅館 - 林森館,"台北排名第 181 的超值住宿地點，共 1,200 家",https://www.tripadvisor.com.tw/Hotel_Review-g13808671-d10161506-Reviews-Hotel_Fun_Linsen_Branch-Zhongshan_District_Taipei.html,25.045730590820312,121.50623321533203,NT$960,林森北路487號,3.0,台北,中山區,"NT$464 - NT$2,072",4.0,116,https://media-cdn.tripadvisor.com/media/photo-s/0d/a8/cb/d6/caption.jpg,"免費高速上網 (WiFi), 免費網際網路, 網際網路, 免費早餐, 餐廳, 禁菸飯店, 洗衣服務","禁菸客房, 家庭房, 空調設施",25.06124,121.526985,
台北大亞帝國H,"台北排名第 182 的超值住宿地點，共 1,200 家",https://www.tripadvisor.com.tw/Hotel_Review-g13808853-d12969326-Reviews-Taipei_H_Imperial-Zhongzheng_District_Taipei.html,25.06123924255371,121.52698516845703,"NT$1,113",中正區中正區忠孝西路一段50號11樓,3.0,台北,中正區,"NT$1,268 - NT$3,866",4.0,196,https://media-cdn.tripadvisor.com/media/photo-s/11/84/f2/95/h.jpg,"免費網際網路, 網際網路, 禁菸飯店, 洗衣服務, 自助式洗衣","禁菸客房, 家庭房, 空調設施",25.045744,121.51618,NT$960
丰居旅店(忠孝館),"台北排名第 183 的超值住宿地點，共 1,200 家",https://www.tripadvisor.com.tw/Hotel_Review-g13811269-d7683683-Reviews-Via_Hotel_Zhongxiao-Da_an_Taipei.html,25.045743942260742,121.51618194580078,"NT$1,783",復興南路一段126巷1號3樓,3.5,台北,大安,"NT$1,856 - NT$4,237",4.5,64,https://media-cdn.tripadvisor.com/media/photo-s/07/5a/8d/49/getlstd-property-photo.jpg,"免費高速上網 (WiFi), 免費網際網路, 無線網路, 公用無線網路, 免費早餐, 餐廳, 禁菸飯店, 自助式洗衣, 網際網路","禁菸客房, 套房, 家庭房, 空調設施, 冰箱",25.043245,121.54313,
摩莎曼拉精品旅館-台北車站館,"台北排名第 184 的超值住宿地點，共 1,200 家",https://www.tripadvisor.com.tw/Hotel_Review-g13808853-d8663905-Reviews-Moshamanla_Hotel_Main_Station-Zhongzheng_District_Taipei.html,25.043245315551758,121.54312896728516,"NT$1,368",中正區開封街一段33號,3.0,台北,中正區,"NT$1,052 - NT$3,402",3.5,325,https://media-cdn.tripadvisor.com/media/photo-s/0d/6f/a2/a4/caption.jpg,"免費高速上網 (WiFi), 免費網際網路, 有健身房的健身中心, 免費早餐, 餐廳, 禁菸飯店, 洗衣服務, 自助式洗衣, 無線網路, 公用無線網路, 網際網路, 自助式早餐","禁菸客房, 家庭房, 空調設施, 冰箱, 平板電視",25.046156,121.51289,
漾館時尚溫泉旅館,"台北排名第 185 的超值住宿地點，共 1,200 家",https://www.tripadvisor.com.tw/Hotel_Review-g13806427-d1743349-Reviews-Aqua_Bella_Hotel-Beitou_Taipei.html,25.04615592956543,121.51289367675781,"NT$2,620",北投區溫泉路63號,4.0,台北,北投,"NT$3,124 - NT$6,774",4.0,136,https://media-cdn.tripadvisor.com/media/photo-s/0a/6d/23/9e/hallways--v10498113.jpg,"免費停車, 免費高速上網 (WiFi), 有健身房的健身中心, 浴缸, 免費早餐, 機場接送, Spa, 禮賓服務, 免費網際網路, 無線網路, 網際網路, 餐廳, 自助式早餐, 禁菸飯店, 洗衣服務, 自助式洗衣","禁菸客房, 套房, 空調設施, 冰箱",25.135153,121.50465,
水美溫泉會館,"台北排名第 186 的超值住宿地點，共 1,200 家",https://www.tripadvisor.com.tw/Hotel_Review-g13806427-d582175-Reviews-SweetMe_Hotspring_Resort-Beitou_Taipei.html,25.13515281677246,121.50464630126953,"NT$3,119",光明路224號,3.5,台北,北投,"NT$3,402 - NT$6,124",3.5,311,https://media-cdn.tripadvisor.com/media/photo-s/0f/60/e2/ea/caption.jpg,"免費高速上網 (WiFi), 免費網際網路, 浴缸, 餐廳, 會議室, Spa, 禁菸飯店, 洗衣服務, 無線網路, 網際網路, 自助式早餐","禁菸客房, 家庭房, 空調設施, 冰箱, 平板電視",25.136366,121.50492,
謙商旅-東門館,"台北排名第 187 的超值住宿地點，共 1,200 家",https://www.tripadvisor.com.tw/Hotel_Review-g13808853-d4419222-Reviews-Chaiin_Hotel_Dongmen-Zhongzheng_District_Taipei.html,25.137746810913086,121.51493835449219,"NT$1,761",中正區信義路二段163號3-12F,3.0,台北,中正區,"NT$1,887 - NT$4,237",4.0,244,https://media-cdn.tripadvisor.com/media/photo-s/17/8e/cb/24/caption.jpg,"免費高速上網 (WiFi), 免費早餐, 機場接送, 提供上網服務的商務中心, 會議設施, 禮賓服務, 禁菸飯店, 乾洗服務, 免費網際網路, 無線網路, 公用無線網路, 網際網路, 餐廳, 提供早餐, 自助式早餐, 巴士接駁服務, 會議室, 洗衣服務","禁菸客房, 空調設施, 冰箱, 平板電視",25.033962,121.52888,"NT$9,715"
旅晨行旅,"台北排名第 188 的超值住宿地點，共 1,200 家",https://www.tripadvisor.com.tw/Hotel_Review-g13808853-d9741450-Reviews-RE_Change_Hotel-Zhongzheng_District_Taipei.html,25.13636589050293,121.50492095947266,"NT$1,222",中正區重慶南路一段1號2樓,2.5,台北,中正區,"NT$1,144 - NT$3,093",4.5,72,https://media-cdn.tripadvisor.com/media/photo-s/0f/3c/e5/c8/caption.jpg,"免費高速上網 (WiFi), 免費網際網路, 網際網路, 禮賓服務, 禁菸飯店","禁菸客房, 套房, 空調設施",25.046902,121.51332,"NT$3,119"
台北愛行旅,"台北排名第 189 的超值住宿地點，共 1,200 家",https://www.tripadvisor.com.tw/Hotel_Review-g13808671-d11698293-Reviews-Hotel_I_Journey_Taipei-Zhongshan_District_Taipei.html,25.03396224975586,121.52887725830078,"NT$1,030",中山區民生西路16號4樓,3.0,台北,中山區,"NT$1,237 - NT$2,846",4.5,67,https://media-cdn.tripadvisor.com/media/photo-s/0d/5c/fb/66/caption.jpg,"免費高速上網 (WiFi), 免費網際網路, 無線網路, 公用無線網路, 網際網路, 禮賓服務, 禁菸飯店, 洗衣服務","禁菸客房, 套房, 家庭房, 空調設施, 冰箱",25.057594,121.52222,"NT$1,781"
台北摩莎精品旅店,"台北排名第 190 的超值住宿地點，共 1,200 家",https://www.tripadvisor.com.tw/Hotel_Review-g13808853-d10205188-Reviews-Taipei_Mosha_Hotel_Main_Station-Zhongzheng_District_Taipei.html,25.04690170288086,121.51332092285156,"NT$1,628",中正區漢口街一段64号 中正区,3.5,台北,中正區,"NT$1,392 - NT$4,083",3.5,435,https://media-cdn.tripadvisor.com/media/photo-s/0b/a1/59/65/double.jpg,"免費高速上網 (WiFi), 有健身房的健身中心, 免費早餐, 提供上網服務的商務中心, 行李存放, 禮賓服務, 洗衣服務, 自助式洗衣, 免費網際網路, 無線網路, 公用無線網路, 網際網路, 餐廳, 提供早餐, 自助式早餐, 禁菸飯店","禁菸客房, 套房, 家庭房, 空調設施, 冰箱, 平板電視",25.044935,121.51289,
台北馥華南港館 ,"台北排名第 191 的超值住宿地點，共 1,200 家",https://www.tripadvisor.com.tw/Hotel_Review-g13806753-d2026524-Reviews-Taipei_Forward_Hotel_Nangang_Branch-Nangang_Taipei.html,25.057594299316406,121.522216796875,"NT$1,799",南港區三重路23號,3.0,台北,南港,"NT$2,103 - NT$3,897",4.0,89,https://media-cdn.tripadvisor.com/media/photo-s/05/45/8a/86/caption.jpg,"免費停車, 免費高速上網 (WiFi), 有健身房的健身中心, 免費早餐, 提供上網服務的商務中心, 宴會廳, 禁菸飯店, 洗衣服務, 免費網際網路, 無線網路, 公用無線網路, 網際網路, 餐廳, 自助式洗衣","禁菸客房, 套房, 空調設施",25.059166,121.61411,
美寓,"台北排名第 192 的超值住宿地點，共 1,200 家",https://www.tripadvisor.com.tw/Hotel_Review-g13806900-d5998644-Reviews-Meistay-Songshan_Taipei.html,25.04493522644043,121.51289367675781,"NT$1,025",松山區八德路三段2號14樓,2.5,台北,松山,"NT$1,083 - NT$2,041",4.0,74,https://media-cdn.tripadvisor.com/media/photo-s/05/4e/b1/c4/caption.jpg,"免費高速上網 (WiFi), 免費網際網路, 無線網路, 網際網路, 禁菸飯店","禁菸客房, 空調設施, 平板電視",25.048082,121.54915,"NT$1,628"
洛碁中華大飯店,"台北排名第 193 的超值住宿地點，共 1,200 家",https://www.tripadvisor.com.tw/Hotel_Review-g13808853-d6105600-Reviews-Green_World_Hotel_Zhonghua-Zhongzheng_District_Taipei.html,25.059165954589844,121.6141128540039,"NT$1,845",中正區中華路一段41號13樓,3.5,台北,中正區,"NT$1,887 - NT$4,794",4.0,392,https://media-cdn.tripadvisor.com/media/photo-s/06/b6/f5/aa/caption.jpg,"免費高速上網 (WiFi), 免費網際網路, 有健身房的健身中心, 免費早餐, 機場接送, 禁菸飯店, 乾洗服務, 自助式洗衣, 無線網路, 公用無線網路, 網際網路, 餐廳, 自助式早餐","禁菸客房, 套房, 空調設施, 冰箱, 平板電視",25.044962,121.50932,
力麗哲園商旅-台北,"台北排名第 194 的超值住宿地點，共 1,200 家",https://www.tripadvisor.com.tw/Hotel_Review-g13806900-d1191398-Reviews-Lealea_Garden_Hotels_Taipei-Songshan_Taipei.html,25.04808235168457,121.54914855957031,"NT$1,905",松山區八德路四段213號,3.5,台北,松山,"NT$1,856 - NT$3,928",4.0,146,https://media-cdn.tripadvisor.com/media/photo-s/0e/54/a8/a8/caption.jpg,"免費停車, 免費高速上網 (WiFi), 有健身房的健身中心, 浴缸, 免費早餐, 會議室, 禁菸飯店, 乾洗服務, 免費網際網路, 無線網路, 網際網路, 餐廳, 洗衣服務","禁菸客房, 家庭房, 空調設施",25.048838,121.564186,
洛碁南京大飯店,"台北排名第 195 的超值住宿地點，共 1,200 家",https://www.tripadvisor.com.tw/Hotel_Review-g13808671-d9775937-Reviews-Green_World_Hotel_Grand_Nanjing-Zhongshan_District_Taipei.html,25.04496192932129,121.50932312011719,"NT$2,074",南京東路三段8號 南京建國路口,4.0,台北,中山區,"NT$2,258 - NT$4,670",4.0,138,https://media-cdn.tripadvisor.com/media/photo-s/0a/25/aa/c5/getlstd-property-photo.jpg,"免費高速上網 (WiFi), 免費網際網路, 無線網路, 網際網路, 餐廳, 禁菸飯店, 洗衣服務","禁菸客房, 空調設施, 冰箱",25.05185,121.536934,
松河璞旅,"台北排名第 196 的超值住宿地點，共 1,200 家",https://www.tripadvisor.com.tw/Hotel_Review-g13806900-d12981511-Reviews-Bouti_Waterfront_Hotel-Songshan_Taipei.html,25.048837661743164,121.5641860961914,"NT$1,533",松河街112號,3.0,台北,松山,"NT$1,794 - NT$3,804",4.5,64,https://media-cdn.tripadvisor.com/media/photo-s/13/8e/09/d5/caption.jpg,"免費高速上網 (WiFi), 免費網際網路, 無線網路, 酒吧/酒廊, 機場接送, 禁菸飯店, 乾洗服務, 自助式洗衣, 公用無線網路, 網際網路","禁菸客房, 空調設施, 冰箱",25.051023,121.575035,"NT$1,905"
維多麗亞酒店,"台北排名第 197 的超值住宿地點，共 1,200 家",https://www.tripadvisor.com.tw/Hotel_Review-g13808671-d1027802-Reviews-Grand_Victoria_Hotel-Zhongshan_District_Taipei.html,25.051849365234375,121.53693389892578,"NT$3,522",敬業四路168號,4.5,台北,中山區,"NT$4,237 - NT$8,011",4.0,204,https://media-cdn.tripadvisor.com/media/photo-s/02/d5/db/fe/caption.jpg,"免費停車, 免費高速上網 (WiFi), 游泳池, 有健身房的健身中心, 免費早餐, 提供上網服務的商務中心, 會議設施, 禮賓服務, 停車, 免費網際網路, 無線網路, 網際網路, 室外游泳池, 酒吧/酒廊, 餐廳, 提供早餐, 自助式早餐, 宴會廳, 會議室, 禁菸飯店, 乾洗服務, 洗衣服務, 自助式洗衣","禁菸客房, 套房, 空調設施, 房務, 客房服務, 迷你吧, 平板電視",25.084503,121.55887,
梅樓商務驛站,"台北排名第 198 的超值住宿地點，共 1,200 家",https://www.tripadvisor.com.tw/Hotel_Review-g13806451-d5962333-Reviews-Main_Inn_Taipei-Datong_Taipei.html,25.051023483276367,121.57503509521484,NT$723,鄭州路21巷12號 2樓,2.5,台北,大同,"NT$433 - NT$1,980",4.0,145,https://media-cdn.tripadvisor.com/media/photo-s/05/86/d1/2a/main-inn-taipei.jpg,"免費高速上網 (WiFi), 免費網際網路, 無線網路, 公用無線網路, 網際網路, 禁菸飯店, 洗衣服務, 自助式洗衣","禁菸客房, 空調設施, 微波爐",25.049648,121.51443,
