title,paiming,uri,lat,lng,recommend_price,hotel_address,hotel_star,hotel_city,hotel_section,price_range,avg_rating,comment_count,offical_img_uri,facility,room,agoda_price
台北凱達大飯店,"台北排名第 1 的超值住宿地點，共 1,200 家",https://www.tripadvisor.com.tw/Hotel_Review-g13806951-d12439218-Reviews-Caesar_Metro_Taipei-Wanhua_Taipei.html,25.04400634765625,121.50775146484375,"NT$2,776",艋舺大道167號,4.0,台北,萬華,"NT$2,861 - NT$6,444",4.0,336,https://media-cdn.tripadvisor.com/media/photo-s/11/a3/57/0d/caption.jpg,"禁菸客房, 套房, 家庭房, 空調設施, 客房服務, 冰箱","免費高速上網 (WiFi), 游泳池, 有健身房的健身中心, 酒吧/酒廊, 機場接送, 提供上網服務的商務中心, 宴會廳, 禮賓服務, 免費網際網路, 無線網路, 公用無線網路, 網際網路, 餐廳, 提供早餐, 自助式早餐, 會議室, 禁菸飯店, 乾洗服務, 洗衣服務","NT$2,667"
新驛旅店 - 復興北路店,"台北排名第 2 的超值住宿地點，共 1,200 家",https://www.tripadvisor.com.tw/Hotel_Review-g13808671-d8263705-Reviews-Cityinn_Hotel_Plus_Fuxing_N_Rd_Branch-Zhongshan_District_Taipei.html,25.033275604248047,121.49951934814453,"NT$1,960",中山區復興北路338號,3.5,台北,中山區,"NT$2,326 - NT$4,401",5.0,919,https://media-cdn.tripadvisor.com/media/photo-s/0f/5a/67/42/caption.jpg,"禁菸客房, 套房, 家庭房, 空調設施, 保險箱, 冰箱, 平板電視","免費停車, 停車, 免費高速上網 (WiFi), 機場接送, 提供上網服務的商務中心, 禁菸飯店, 乾洗服務, 洗衣服務, 免費網際網路, 無線網路, 公用無線網路, 網際網路, 自助式洗衣",
路境行旅,"台北排名第 3 的超值住宿地點，共 1,200 家",https://www.tripadvisor.com.tw/Hotel_Review-g13808853-d12404865-Reviews-Finders_Hotel-Zhongzheng_District_Taipei.html,25.05954360961914,121.54399871826172,"NT$1,326",中正區重慶南路一段86號7-11樓,3.0,台北,中正區,"NT$1,635 - NT$4,432",4.5,175,https://media-cdn.tripadvisor.com/media/photo-s/0f/65/86/97/caption.jpg,"禁菸客房, 套房, 家庭房, 空調設施, 房務, 冰箱","免費高速上網 (WiFi), 免費網際網路, 兒童活動 (適合兒童/家庭), 機場接送, 禮賓服務, 禁菸飯店, 乾洗服務, 洗衣服務, 無線網路, 公用無線網路, 網際網路","NT$2,424"
圓山大飯店,"台北排名第 4 的超值住宿地點，共 1,200 家",https://www.tripadvisor.com.tw/Hotel_Review-g13808671-d306446-Reviews-Grand_Hotel_Taipei-Zhongshan_District_Taipei.html,25.0432071685791,121.51302337646484,"NT$2,743",中山北路四段1號,4.5,台北,中山區,"NT$3,269 - NT$6,821",4.0,1246,https://media-cdn.tripadvisor.com/media/photo-s/16/9f/a0/cc/pool.jpg,客房服務,,"NT$1,496"
儷夏商旅 - 西門捷運館,"台北排名第 5 的超值住宿地點，共 1,200 家",https://www.tripadvisor.com.tw/Hotel_Review-g13806951-d3810028-Reviews-Muzik_Hotel_Ximen_Station_Branch-Wanhua_Taipei.html,25.078460693359375,121.52623748779297,"NT$1,203",萬華區中華路1段90號6樓 Ximending,3.0,台北,萬華,"NT$1,477 - NT$3,709",4.5,822,https://media-cdn.tripadvisor.com/media/photo-s/15/85/b3/51/caption.jpg,"禁菸客房, 保險箱, 迷你吧, 冰箱, 平板電視","免費高速上網 (WiFi), 免費網際網路, 無線網路, 提供早餐, 機場接送, 禮賓服務, 洗衣服務, 自助式洗衣, 公用無線網路, 網際網路","NT$3,429"
丰居旅店雙連館,"台北排名第 6 的超值住宿地點，共 1,200 家",https://www.tripadvisor.com.tw/Hotel_Review-g13808671-d4463155-Reviews-Via_Hotel_Loft-Zhongshan_District_Taipei.html,25.044679641723633,121.5085678100586,"NT$1,541",民生東路一段42號2樓,3.0,台北,中山區,"NT$1,572 - NT$6,318",4.5,762,https://media-cdn.tripadvisor.com/media/photo-s/0a/6d/45/07/voyage-room--v10498791.jpg,"禁菸客房, 家庭房, 空調設施, 冰箱, 平板電視","免費高速上網 (WiFi), 免費網際網路, 無線網路, 公用無線網路, 免費早餐, 禮賓服務, 禁菸飯店, 自助式洗衣, 網際網路",
倆人旅店,"台北排名第 7 的超值住宿地點，共 1,200 家",https://www.tripadvisor.com.tw/Hotel_Review-g13806427-d1993302-Reviews-Hotel_DOUBLE_ONE-Beitou_Taipei.html,25.04445457458496,121.52520751953125,"NT$1,541",北投區幽雅路11號,3.5,台北,北投,"NT$2,798 - NT$6,350",4.5,507,https://media-cdn.tripadvisor.com/media/photo-s/09/80/07/3d/caption.jpg,免費停車,,"NT$3,995"
台北美侖大飯店,"台北排名第 8 的超值住宿地點，共 1,200 家",https://www.tripadvisor.com.tw/Hotel_Review-g13811269-d1448672-Reviews-Park_Taipei_Hotel-Da_an_Taipei.html,25.05792999267578,121.5245132446289,"NT$2,749",復興南路一段317號,3.5,台北,大安,"NT$3,206 - NT$5,690",4.5,789,https://media-cdn.tripadvisor.com/media/photo-s/14/cd/d3/78/entrance.jpg,餐廳,,"NT$1,541"
台北花園大酒店,"台北排名第 9 的超值住宿地點，共 1,200 家",https://www.tripadvisor.com.tw/Hotel_Review-g13808853-d1224203-Reviews-Taipei_Garden_Hotel-Zhongzheng_District_Taipei.html,25.136882781982422,121.51343536376953,"NT$2,469",中正區中華路二段1號,4.5,台北,中正區,"NT$3,018 - NT$6,035",4.5,2766,https://media-cdn.tripadvisor.com/media/photo-s/09/32/1f/6c/caption.jpg,"禁菸客房, 套房, 家庭房, 空調設施, 房務, 客房服務, 迷你吧, 平板電視, 保險箱, 冰箱","免費停車, 免費高速上網 (WiFi), 有健身房的健身中心, 浴缸, 酒吧/酒廊, 兒童可享免費住宿, 機場接送, 提供上網服務的商務中心, 停車, 免費網際網路, 無線網路, 網際網路, 餐廳, 提供早餐, 自助式早餐, 會議設施, 宴會廳, 會議室, Spa, 屋頂露台, 禮賓服務, 禁菸飯店, 24 小時服務櫃台, 乾洗服務, 洗衣服務",
薆悅酒店,"台北排名第 10 的超值住宿地點，共 1,200 家",https://www.tripadvisor.com.tw/Hotel_Review-g13806951-d2527833-Reviews-Inhouse_Hotel_Heritage-Wanhua_Taipei.html,25.03431510925293,121.54376220703125,"NT$2,076",萬華區西寧南路107號,3.5,台北,萬華,"NT$2,358 - NT$4,369",4.0,489,https://media-cdn.tripadvisor.com/media/photo-s/0e/29/2f/57/inhouse-hotel-s-lobby.jpg,"禁菸客房, 套房, 空調設施, 冰箱, 平板電視","免費高速上網 (WiFi), 免費網際網路, 無線網路, 免費早餐, 餐廳, 禮賓服務, 禁菸飯店, 洗衣服務, 公用無線網路, 網際網路, 提供早餐, 自助式早餐",
信星旅馆 - 台北車站,"台北排名第 11 的超值住宿地點，共 1,200 家",https://www.tripadvisor.com.tw/Hotel_Review-g13806451-d6925013-Reviews-Star_Hostel_Taipei_Main_Station-Datong_Taipei.html,25.036422729492188,121.50684356689453,"NT$1,971",大同區華陰街50號4樓,2.0,台北,大同,"NT$786 - NT$3,301",4.5,409,https://media-cdn.tripadvisor.com/media/photo-s/10/1e/51/bf/photo0jpg.jpg,免費高速上網 (WiFi),,"NT$2,797"
台北松山意舍酒店,"台北排名第 12 的超值住宿地點，共 1,200 家",https://www.tripadvisor.com.tw/Hotel_Review-g13806753-d8781562-Reviews-Amba_Taipei_Songshan-Nangang_Taipei.html,25.045055389404297,121.50668334960938,"NT$3,100",市民大道七段8號,4.0,台北,南港,"NT$3,395 - NT$5,973",4.5,426,https://media-cdn.tripadvisor.com/media/photo-s/12/6e/02/84/corner-101-view-room.jpg,"禁菸客房, 套房, 家庭房, 空調設施, 冰箱, 平板電視","免費停車, 免費高速上網 (WiFi), 有健身房的健身中心, 酒吧/酒廊, 免費接駁或計程車服務, 會議設施, 宴會廳, 禮賓服務, 免費網際網路, 無線網路, 公用無線網路, 網際網路, 餐廳, 提供早餐, 自助式早餐, 機場接送, 巴士接駁服務, 會議室, 禁菸飯店, 乾洗服務, 洗衣服務, 自助式洗衣","NT$2,251"
喜瑞飯店,"台北排名第 13 的超值住宿地點，共 1,200 家",https://www.tripadvisor.com.tw/Hotel_Review-g13808671-d598759-Reviews-Ambience_Hotel-Zhongshan_District_Taipei.html,25.050132751464844,121.51573181152344,"NT$2,108",長安東路一段64號,3.5,台北,中山區,"NT$2,483 - NT$4,212",4.5,1857,https://media-cdn.tripadvisor.com/media/photo-s/0d/a2/ac/06/caption.jpg,"禁菸客房, 家庭房, 空調設施, 保險箱, 迷你吧, 冰箱, 平板電視","停車, 免費高速上網 (WiFi), 免費網際網路, 免費早餐, 禮賓服務, 禁菸飯店, 乾洗服務, 洗衣服務, 無線網路, 公用無線網路, 網際網路, 酒吧/酒廊, 提供早餐, 自助式早餐, 自助式洗衣",
老爺會館台北南西- 捷運中山站,"台北排名第 14 的超值住宿地點，共 1,200 家",https://www.tripadvisor.com.tw/Hotel_Review-g13808671-d308595-Reviews-Royal_Inn_Taipei_Nanxi_MRT_Zhongshan_Station-Zhongshan_District_Taipei.html,25.049285888671875,121.5804672241211,"NT$2,503",南京西路1號 8樓 (鄰近台北捷運中山站),3.0,台北,中山區,"NT$2,703 - NT$5,375",4.0,412,https://media-cdn.tripadvisor.com/media/photo-s/0f/a5/48/79/caption.jpg,"禁菸客房, 套房, 家庭房, 空調設施, 冰箱, 平板電視","免費高速上網 (WiFi), 免費網際網路, 免費早餐, 會議室, 禮賓服務, 禁菸飯店, 乾洗服務, 自助式洗衣, 無線網路, 網際網路, 餐廳, 自助式早餐","NT$3,500"
天成文旅-華山町,"台北排名第 15 的超值住宿地點，共 1,200 家",https://www.tripadvisor.com.tw/Hotel_Review-g13808853-d14187606-Reviews-Hua_Shan_Din_by_Cosmos_Creation-Zhongzheng_District_Taipei.html,25.04802703857422,121.5294189453125,"NT$2,281",忠孝東路二段79號,3.5,台北,中正區,"NT$2,892 - NT$4,904",5.0,119,https://media-cdn.tripadvisor.com/media/photo-s/13/8e/41/c4/getlstd-property-photo.jpg,禁菸客房,"免費高速上網 (WiFi), 免費網際網路, 免費早餐, 酒吧/酒廊, 機場接送, 禮賓服務, 禁菸飯店, 自助式洗衣, 無線網路, 公用無線網路, 網際網路, 餐廳","NT$2,364"
台北西門町意舍,"台北排名第 16 的超值住宿地點，共 1,200 家",https://www.tripadvisor.com.tw/Hotel_Review-g13806951-d2347774-Reviews-Amba_Taipei_Ximending-Wanhua_Taipei.html,25.05244255065918,121.52197265625,"NT$2,281",武昌街二段77號1樓、5樓-10樓,4.0,台北,萬華,"NT$2,892 - NT$5,438",4.5,936,https://media-cdn.tripadvisor.com/media/photo-s/12/cf/10/21/newly-refurbished-medium.jpg,"禁菸客房, 家庭房, 空調設施, 房務, 衣櫃/壁櫥, 迷你吧, 第四台/衛星電視, 步入式淋浴間, 瓶裝水, 衣架, 喚醒服務/鬧鐘, 平板電視, 免費衛浴用品, 吹風機","現場付費公共停車場, 免費高速上網 (WiFi), 酒吧/酒廊, 嬰兒推車, 包車, 傳真/影印, 禮賓服務, 禁菸飯店, 免費網際網路, 無線網路, 公用無線網路, 網際網路, 咖啡館, 餐廳, 自助式早餐, 免費提供茶, 雨傘, 烘衣機, 乾洗服務, 洗衣服務, 自助式洗衣, 洗衣機",
台北華國大飯店,"台北排名第 17 的超值住宿地點，共 1,200 家",https://www.tripadvisor.com.tw/Hotel_Review-g13808671-d306188-Reviews-Imperial_Hotel_Taipei-Zhongshan_District_Taipei.html,25.043378829956055,121.53032684326172,"NT$2,371",中山區林森北路600號,4.0,台北,中山區,"NT$2,892 - NT$4,872",4.0,1007,https://media-cdn.tripadvisor.com/media/photo-s/09/9a/95/1a/club-deluxe-room-king--v8742145.jpg,"禁菸客房, 套房, 家庭房, 空調設施, 客房服務, 迷你吧, 冰箱, 平板電視","免費停車, 免費高速上網 (WiFi), 有健身房的健身中心, 酒吧/酒廊, 機場接送, 提供上網服務的商務中心, 會議設施, 禮賓服務, 免費網際網路, 無線網路, 公用無線網路, 網際網路, 餐廳, 自助式早餐, 巴士接駁服務, 宴會廳, 會議室, 禁菸飯店, 乾洗服務, 洗衣服務",
福泰桔子商務旅館 西門店,"台北排名第 18 的超值住宿地點，共 1,200 家",https://www.tripadvisor.com.tw/Hotel_Review-g13806951-d3862269-Reviews-Orange_Hotel_Ximen_Taipei-Wanhua_Taipei.html,25.045047760009766,121.50572204589844,"NT$2,371",萬華區中華路一段166號之2,2.5,台北,萬華,"NT$2,043 - NT$3,678",4.5,408,https://media-cdn.tripadvisor.com/media/photo-s/0e/77/a9/73/caption.jpg,免費高速上網 (WiFi),,"NT$2,700"
台北中山意舍酒店,"台北排名第 19 的超值住宿地點，共 1,200 家",https://www.tripadvisor.com.tw/Hotel_Review-g13808671-d7738019-Reviews-Amba_Taipei_Zhongshan-Zhongshan_District_Taipei.html,25.06601905822754,121.52552032470703,"NT$3,200",中山北路二段57-1號,3.5,台北,中山區,"NT$3,112 - NT$5,061",4.5,417,https://media-cdn.tripadvisor.com/media/photo-s/08/ba/0e/e8/amba-taipei-zhongshan.jpg,"禁菸客房, 家庭房, 空調設施, 平板電視","免費高速上網 (WiFi), 免費網際網路, 酒吧/酒廊, 餐廳, 禮賓服務, 禁菸飯店, 乾洗服務, 洗衣服務, 無線網路, 公用無線網路, 網際網路, 自助式早餐, 自助式洗衣","NT$2,857"
伸適商旅,"台北排名第 20 的超值住宿地點，共 1,200 家",https://www.tripadvisor.com.tw/Hotel_Review-g13808671-d1218729-Reviews-Hotel_Sense-Zhongshan_District_Taipei.html,25.041248321533203,121.50778198242188,"NT$2,201",中山區林森北路477號,4.0,台北,中山區,"NT$2,483 - NT$5,124",4.0,199,https://media-cdn.tripadvisor.com/media/photo-s/0b/c2/f1/e2/deluxe-room.jpg,"禁菸客房, 家庭房, 空調設施, 迷你吧, 平板電視","免費停車, 免費高速上網 (WiFi), 有健身房的健身中心, 餐廳, 提供上網服務的商務中心, 會議室, 禮賓服務, 禁菸飯店, 停車, 免費網際網路, 無線網路, 網際網路, 自助式早餐, 乾洗服務, 洗衣服務","NT$1,700"
台北燦路都飯店,"台北排名第 21 的超值住宿地點，共 1,200 家",https://www.tripadvisor.com.tw/Hotel_Review-g13808671-d478062-Reviews-Hotel_Sunroute_Taipei-Zhongshan_District_Taipei.html,25.0557918548584,121.52298736572266,"NT$2,554",中山區民權東路一段9號,3.0,台北,中山區,"NT$2,138 - NT$3,364",4.0,455,https://media-cdn.tripadvisor.com/media/photo-s/16/a7/4c/83/caption.jpg,免費高速上網 (WiFi),,
華泰王子大飯店,"台北排名第 22 的超值住宿地點，共 1,200 家",https://www.tripadvisor.com.tw/Hotel_Review-g13808671-d301400-Reviews-GLORIA_PRINCE_HOTEL_Taipei-Zhongshan_District_Taipei.html,25.060914993286133,121.52572631835938,"NT$2,501",中山區林森北路369號,3.5,台北,中山區,"NT$2,735 - NT$4,369",4.0,498,https://media-cdn.tripadvisor.com/media/photo-s/13/68/7a/1d/exterior-view.jpg,"禁菸客房, 套房, 家庭房, 空調設施, 客房服務, 迷你吧, 冰箱, 平板電視","免費高速上網 (WiFi), 有健身房的健身中心, 浴缸, 酒吧/酒廊, 機場接送, 提供上網服務的商務中心, 會議設施, 禮賓服務, 免費網際網路, 無線網路, 公用無線網路, 網際網路, 餐廳, 自助式早餐, 宴會廳, 會議室, 禁菸飯店, 乾洗服務, 洗衣服務",
喜來登大飯店,"台北排名第 23 的超值住宿地點，共 1,200 家",https://www.tripadvisor.com.tw/Hotel_Review-g13808853-d301805-Reviews-Sheraton_Grand_Taipei_Hotel-Zhongzheng_District_Taipei.html,25.063047409057617,121.52313232421875,"NT$2,501",忠孝東路一段12號,4.5,台北,中正區,"NT$6,256 - NT$9,776",4.0,1707,https://media-cdn.tripadvisor.com/media/photo-s/18/00/24/75/lobby.jpg,"禁菸客房, 套房, 家庭房, 空調設施, 客房服務, 迷你吧, 冰箱, 平板電視","停車, 免費高速上網 (WiFi), 游泳池, 有健身房的健身中心, 酒吧/酒廊, 機場接送, 提供上網服務的商務中心, 會議設施, 免費網際網路, 無線網路, 網際網路, 浴缸, 室外游泳池, 餐廳, 提供早餐, 自助式早餐, 宴會廳, 會議室, Spa, 禮賓服務, 禁菸飯店, 乾洗服務, 洗衣服務",
台北商旅大安館,"台北排名第 24 的超值住宿地點，共 1,200 家",https://www.tripadvisor.com.tw/Hotel_Review-g13811269-d306453-Reviews-Les_Suites_Taipei_Da_An-Da_an_Taipei.html,25.05793571472168,121.52567291259766,"NT$3,389",大安路一段135號,4.0,台北,大安,"NT$3,395 - NT$8,833",4.0,356,https://media-cdn.tripadvisor.com/media/photo-s/14/97/03/a0/caption.jpg,免費高速上網 (WiFi),,"NT$3,562"
台北北投雅樂軒酒店,"台北排名第 25 的超值住宿地點，共 1,200 家",https://www.tripadvisor.com.tw/Hotel_Review-g13806427-d11978011-Reviews-Aloft_Taipei_Beitou-Beitou_Taipei.html,25.04484748840332,121.52216339111328,"NT$3,173",大業路300巷1號,4.0,台北,北投,"NT$3,646 - NT$5,312",4.5,338,https://media-cdn.tripadvisor.com/media/photo-s/0f/48/a8/3a/breezy-suite.jpg,"禁菸客房, 套房, 家庭房, 空調設施, 迷你吧, 冰箱","免費停車, 免費高速上網 (WiFi), 有健身房的健身中心, 酒吧/酒廊, 提供上網服務的商務中心, 會議設施, 禮賓服務, 禁菸飯店, 免費網際網路, 無線網路, 公用無線網路, 網際網路, 餐廳, 提供早餐, 自助式早餐, 會議室, 乾洗服務, 洗衣服務, 自助式洗衣","NT$5,900"
老爺會館台北林森,"台北排名第 26 的超值住宿地點，共 1,200 家",https://www.tripadvisor.com.tw/Hotel_Review-g13808671-d4439685-Reviews-Royal_Inn_Taipei_Linsen-Zhongshan_District_Taipei.html,25.03864288330078,121.546142578125,"NT$3,173",林森北路83號4樓 Near Huashan 1914 Creative Park,3.0,台北,中山區,"NT$2,578 - NT$4,998",4.5,250,https://media-cdn.tripadvisor.com/media/photo-s/11/5a/58/91/business-room.jpg,免費高速上網 (WiFi),,
台北天成大飯店,"台北排名第 27 的超值住宿地點，共 1,200 家",https://www.tripadvisor.com.tw/Hotel_Review-g13808853-d455561-Reviews-Cosmos_Hotel_Taipei-Zhongzheng_District_Taipei.html,25.128265380859375,121.49799346923828,,中正區忠孝西路一段43號 Zhongzheng Dist,4.0,台北,中正區,"NT$2,798 - NT$4,904",4.5,4233,https://media-cdn.tripadvisor.com/media/photo-s/11/6f/72/5e/caption.jpg,"禁菸客房, 套房, 家庭房, 空調設施, 房務, 客房服務, 迷你吧, 平板電視, 保險箱, 冰箱","免費停車, 免費高速上網 (WiFi), 有健身房的健身中心, 浴缸, 酒吧/酒廊, 提供上網服務的商務中心, 會議設施, 禮賓服務, 停車, 免費網際網路, 無線網路, 網際網路, 餐廳, 提供早餐, 自助式早餐, 宴會廳, 會議室, 禁菸飯店, 乾洗服務, 洗衣服務","NT$3,200"
台北王朝大酒店,"台北排名第 28 的超值住宿地點，共 1,200 家",https://www.tripadvisor.com.tw/Hotel_Review-g13806900-d306449-Reviews-Sunworld_Dynasty_Hotel_Taipei-Songshan_Taipei.html,25.04966926574707,121.5248794555664,"NT$2,251",松山區敦化北路100號,3.5,台北,松山,"NT$2,735 - NT$5,312",4.0,1110,https://media-cdn.tripadvisor.com/media/photo-s/15/28/83/10/sunworld-dynasty-hotel.jpg,"禁菸客房, 套房, 家庭房, 空調設施, 客房服務, 迷你吧, 冰箱, 平板電視","免費停車, 免費高速上網 (WiFi), 游泳池, 有健身房的健身中心, 餐廳, 機場接送, 提供上網服務的商務中心, 會議設施, 免費網際網路, 無線網路, 公用無線網路, 網際網路, 浴缸, 成人游泳池, 室外游泳池, 溫水游泳池, 自助式早餐, 宴會廳, 會議室, Spa, 禮賓服務, 禁菸飯店, 乾洗服務, 洗衣服務","NT$2,299"
薆悅精品,"台北排名第 29 的超值住宿地點，共 1,200 家",https://www.tripadvisor.com.tw/Hotel_Review-g13806951-d8700927-Reviews-Inhouse_Boutique-Wanhua_Taipei.html,25.04625701904297,121.51827239990234,"NT$2,660",萬華區成都路27巷8號,4.0,台北,萬華,"NT$2,955 - NT$5,407",4.5,155,https://media-cdn.tripadvisor.com/media/photo-s/0e/29/22/f0/caption.jpg,"禁菸客房, 套房, 空調設施, 冰箱, 平板電視","免費高速上網 (WiFi), 免費網際網路, 無線網路, 公用無線網路, 免費早餐, 酒吧/酒廊, 餐廳, 禁菸飯店, 網際網路, 提供早餐",
好得文旅,"台北排名第 30 的超值住宿地點，共 1,200 家",https://www.tripadvisor.com.tw/Hotel_Review-g13808671-d10387162-Reviews-Chill_Roof_Hotel-Zhongshan_District_Taipei.html,25.052717208862305,121.54805755615234,"NT$2,383",南京東路二段11號11層 中山区,3.0,台北,中山區,"NT$2,420 - NT$4,275",4.5,63,https://media-cdn.tripadvisor.com/media/photo-s/0c/fe/17/e4/room-no06-corbusier.jpg,"禁菸客房, 套房, 家庭房, 空調設施, 冰箱","免費高速上網 (WiFi), 免費網際網路, 無線網路, 網際網路, 兒童活動 (適合兒童/家庭), 機場接送, 禁菸飯店, 自助式洗衣","NT$3,429"
優美飯店,"台北排名第 31 的超值住宿地點，共 1,200 家",https://www.tripadvisor.com.tw/Hotel_Review-g13808671-d1372927-Reviews-YoMi_Hotel-Zhongshan_District_Taipei.html,25.05785369873047,121.52409362792969,"NT$2,329",民生東路一段28號,3.0,台北,中山區,"NT$1,855 - NT$3,615",4.5,2215,https://media-cdn.tripadvisor.com/media/photo-s/17/0a/d1/88/caption.jpg,"禁菸客房, 家庭房, 空調設施, 冰箱, 平板電視","免費高速上網 (WiFi), 免費網際網路, 無線網路, 自助式早餐, 禁菸飯店, 乾洗服務, 洗衣服務, 自助式洗衣, 公用無線網路, 網際網路","NT$2,329"
儷夏商旅 - 西門町西寧館,"台北排名第 32 的超值住宿地點，共 1,200 家",https://www.tripadvisor.com.tw/Hotel_Review-g13806951-d5890147-Reviews-Muzik_Hotel_Ximending_Xining_Branch-Wanhua_Taipei.html,25.04575538635254,121.5067367553711,"NT$1,203",萬華區西寧南路30號3樓,3.0,台北,萬華,"NT$1,320 - NT$3,269",4.5,461,https://media-cdn.tripadvisor.com/media/photo-s/16/1c/e9/5e/caption.jpg,免費高速上網 (WiFi),,
新驛旅店- 台北車站一館,"台北排名第 33 的超值住宿地點，共 1,200 家",https://www.tripadvisor.com.tw/Hotel_Review-g13808853-d1144583-Reviews-CityInn_Hotel_Taipei_Station_Branch_I-Zhongzheng_District_Taipei.html,25.046205520629883,121.51423645019531,"NT$1,767",中正區懷寧街7號,3.0,台北,中正區,"NT$1,855 - NT$3,269",4.5,1131,https://media-cdn.tripadvisor.com/media/photo-s/15/8d/2f/bf/caption.jpg,"禁菸客房, 空調設施, 平板電視","免費高速上網 (WiFi), 免費網際網路, 無線網路, 公用無線網路, 網際網路, 禁菸飯店, 洗衣服務, 自助式洗衣",
新尚旅店,"台北排名第 34 的超值住宿地點，共 1,200 家",https://www.tripadvisor.com.tw/Hotel_Review-g13808853-d1191387-Reviews-Hotel_73-Zhongzheng_District_Taipei.html,25.034656524658203,121.5263671875,"NT$1,474",中正區信義路二段73號,3.0,台北,中正區,"NT$1,760 - NT$3,961",4.5,1279,https://media-cdn.tripadvisor.com/media/photo-s/13/2a/f9/4a/caption.jpg,"禁菸客房, 家庭房, 空調設施, 保險箱, 冰箱, 平板電視","免費高速上網 (WiFi), 免費網際網路, 免費早餐, 機場接送, 禮賓服務, 禁菸飯店, 乾洗服務, 洗衣服務, 無線網路, 公用無線網路, 網際網路, 餐廳, 自助式早餐, 自助式洗衣","NT$1,686"
方舟旅店 - 長安復興,"台北排名第 35 的超值住宿地點，共 1,200 家",https://www.tripadvisor.com.tw/Hotel_Review-g13808671-d8553817-Reviews-Ark_Hotel_Chang_an_Fuxing-Zhongshan_District_Taipei.html,25.048276901245117,121.54335021972656,"NT$1,198",中山區長安東路二段246號3樓,2.5,台北,中山區,"NT$1,446 - NT$2,892",4.5,267,https://media-cdn.tripadvisor.com/media/photo-s/0a/9a/80/63/caption.jpg,"禁菸客房, 家庭房, 空調設施, 微波爐, 冰箱","免費高速上網 (WiFi), 免費網際網路, 無線網路, 機場接送, 禮賓服務, 禁菸飯店, 洗衣服務, 自助式洗衣, 公用無線網路, 網際網路",
丹迪旅店 – 大安森林公園店 ,"台北排名第 36 的超值住宿地點，共 1,200 家",https://www.tripadvisor.com.tw/Hotel_Review-g13811269-d1411424-Reviews-Dandy_Hotel_Daan_Park_Branch-Da_an_Taipei.html,25.033857345581055,121.53455352783203,"NT$1,906",大安區信義路三段33號,3.0,台北,大安,"NT$2,012 - NT$5,061",4.5,1615,https://media-cdn.tripadvisor.com/media/photo-s/0f/16/ec/34/caption.jpg,免費高速上網 (WiFi),,"NT$2,234"
洛碁大飯店忠孝館,"台北排名第 37 的超值住宿地點，共 1,200 家",https://www.tripadvisor.com.tw/Hotel_Review-g13811269-d10495711-Reviews-Green_World_Hotel_Zhongxiao-Da_an_Taipei.html,25.04091453552246,121.5515365600586,"NT$1,754",大安區忠孝東路四段180號1樓,3.5,台北,大安,"NT$2,578 - NT$5,218",4.5,198,https://media-cdn.tripadvisor.com/media/photo-s/0f/f0/a1/10/caption.jpg,"禁菸客房, 家庭房, 空調設施, 冰箱","免費高速上網 (WiFi), 免費網際網路, 無線網路, 免費早餐, 餐廳, 提供早餐, 禁菸飯店, 洗衣服務, 網際網路, 自助式早餐","NT$2,210"
新驛旅店 - 台北車站三館,"台北排名第 38 的超值住宿地點，共 1,200 家",https://www.tripadvisor.com.tw/Hotel_Review-g13806451-d1950018-Reviews-CityInn_Hotel_Taipei_Station_Branch_III-Datong_Taipei.html,25.051008224487305,121.51667785644531,"NT$1,754",長安西路77號,3.5,台北,大同,"NT$1,760 - NT$4,872",4.5,1488,https://media-cdn.tripadvisor.com/media/photo-s/0d/b8/db/52/cityinn-hotel-taipei.jpg,免費高速上網 (WiFi),,"NT$1,766"
兄弟大飯店,"台北排名第 39 的超值住宿地點，共 1,200 家",https://www.tripadvisor.com.tw/Hotel_Review-g13806900-d308653-Reviews-Brother_Hotel_Taipei-Songshan_Taipei.html,25.05204200744629,121.54458618164062,"NT$1,224",南京東路三段255號,4.0,台北,松山,"NT$3,332 - NT$4,872",4.0,515,https://media-cdn.tripadvisor.com/media/photo-s/11/90/4a/c8/caption.jpg,"禁菸客房, 套房, 家庭房, 空調設施, 客房服務, 冰箱, 平板電視","免費停車, 免費高速上網 (WiFi), 酒吧/酒廊, 機場接送, 提供上網服務的商務中心, 宴會廳, 禮賓服務, 禁菸飯店, 免費網際網路, 無線網路, 公用無線網路, 網際網路, 餐廳, 提供早餐, 自助式早餐, 會議室, 乾洗服務, 洗衣服務",
西悠飯店台北店,"台北排名第 40 的超值住宿地點，共 1,200 家",https://www.tripadvisor.com.tw/Hotel_Review-g13806451-d4314606-Reviews-CU_Hotel_Taipei_Branch-Datong_Taipei.html,25.057037353515625,121.51638793945312,"NT$3,428",大同區民生西路198號2樓 大同區,3.0,台北,大同,"NT$472 - NT$2,735",4.5,426,https://media-cdn.tripadvisor.com/media/photo-s/05/f4/bf/61/caption.jpg,餐廳,,
台北馥敦-馥寓,"台北排名第 41 的超值住宿地點，共 1,200 家",https://www.tripadvisor.com.tw/Hotel_Review-g13806900-d633449-Reviews-Taipei_Fullerton_Hotel_Maison_North-Songshan_Taipei.html,25.05906105041504,121.54444122314453,"NT$3,428",松山區復興北路315號,4.0,台北,松山,"NT$3,615 - NT$5,753",4.0,215,https://media-cdn.tripadvisor.com/media/photo-s/0e/4e/ba/43/hotel-exterior.jpg,"禁菸客房, 套房, 家庭房, 空調設施, 迷你吧, 冰箱, 平板電視","免費停車, 免費高速上網 (WiFi), 有健身房的健身中心, 免費早餐, 機場接送, 會議設施, 會議室, 禮賓服務, 停車, 免費網際網路, 無線網路, 公用無線網路, 網際網路, 提供早餐, 自助式早餐, 禁菸飯店, 乾洗服務, 洗衣服務","NT$3,703"
艾特文旅,"台北排名第 42 的超值住宿地點，共 1,200 家",https://www.tripadvisor.com.tw/Hotel_Review-g13806951-d7682006-Reviews-Art_otel_Ximending_Taipei-Wanhua_Taipei.html,25.04543113708496,121.5035629272461,"NT$1,371",萬華區武昌街二段124-2號,3.5,台北,萬華,"NT$1,540 - NT$7,167",4.5,127,https://media-cdn.tripadvisor.com/media/photo-s/0d/47/9e/e2/art-otel-ximending-taipei.jpg,"禁菸客房, 套房, 家庭房, 空調設施, 微波爐, 冰箱, 平板電視","免費高速上網 (WiFi), 免費網際網路, 無線網路, 公用無線網路, 禮賓服務, 禁菸飯店, 洗衣服務, 自助式洗衣, 網際網路","NT$1,410"
老爺大酒店,"台北排名第 43 的超值住宿地點，共 1,200 家",https://www.tripadvisor.com.tw/Hotel_Review-g13808671-d302516-Reviews-Hotel_Royal_Nikko_Taipei-Zhongshan_District_Taipei.html,25.05371856689453,121.52291107177734,"NT$6,336",中山北路二段37-1號,4.5,台北,中山區,"NT$4,904 - NT$13,894",4.5,1357,https://media-cdn.tripadvisor.com/media/photo-s/17/c6/93/61/guest-room.jpg,游泳池,,"NT$5,150"
台北美福大飯店,"台北排名第 44 的超值住宿地點，共 1,200 家",https://www.tripadvisor.com.tw/Hotel_Review-g13808671-d10161540-Reviews-Grand_Mayfull_Hotel_Taipei-Zhongshan_District_Taipei.html,25.080358505249023,121.55370330810547,"NT$6,336",中山區樂群二路55號,5.0,台北,中山區,"NT$6,413 - NT$11,537",4.5,269,https://media-cdn.tripadvisor.com/media/photo-s/11/81/79/39/lobby.jpg,"禁菸客房, 套房, 家庭房, 空調設施, 客房服務, 迷你吧, 冰箱","免費停車, 免費高速上網 (WiFi), 游泳池, 有健身房的健身中心, 免費早餐, 機場接送, 提供上網服務的商務中心, 會議設施, 免費網際網路, 無線網路, 公用無線網路, 網際網路, 浴缸, 桑拿, 酒吧/酒廊, 餐廳, 提供早餐, 自助式早餐, 游泳池酒吧, 游泳池畔酒吧, 巴士接駁服務, 宴會廳, 會議室, Spa, 禮賓服務, 禁菸飯店, 乾洗服務, 洗衣服務","NT$6,386"
金都精緻溫泉飯店,"台北排名第 45 的超值住宿地點，共 1,200 家",https://www.tripadvisor.com.tw/Hotel_Review-g13806427-d2190585-Reviews-Golden_Hot_Spring_Hotel-Beitou_Taipei.html,25.13654136657715,121.50743103027344,"NT$2,627",北投區光明路240號,3.5,台北,北投,"NT$3,175 - NT$4,684",4.5,188,https://media-cdn.tripadvisor.com/media/photo-s/0f/85/c2/04/caption.jpg,"禁菸客房, 家庭房, 空調設施","免費停車, 免費高速上網 (WiFi), 免費網際網路, 浴缸, 免費早餐, 餐廳, 禁菸飯店, 洗衣服務, 無線網路, 公用無線網路, 網際網路, 自助式早餐","NT$2,774"
Folio Hotel 臺北大安,"台北排名第 46 的超值住宿地點，共 1,200 家",https://www.tripadvisor.com.tw/Hotel_Review-g13811269-d10684961-Reviews-Folio_Hotel_Daan_Taipei-Da_an_Taipei.html,25.032339096069336,121.54474639892578,"NT$2,627",大安區信義路四段30巷23號,3.5,台北,大安,"NT$3,018 - NT$4,747",4.5,162,https://media-cdn.tripadvisor.com/media/photo-s/0e/bc/d7/b0/caption.jpg,"禁菸客房, 空調設施, 冰箱","免費高速上網 (WiFi), 免費網際網路, 無線網路, 酒吧/酒廊, 餐廳, 禁菸飯店, 洗衣服務, 自助式洗衣, 公用無線網路, 網際網路, 提供早餐, 自助式早餐",
台北 柔美精品商旅,"台北排名第 47 的超值住宿地點，共 1,200 家",https://www.tripadvisor.com.tw/Hotel_Review-g13808671-d1425877-Reviews-Taipei_Roumei_Boutique_Hotel-Zhongshan_District_Taipei.html,25.054344177246094,121.53599548339844,"NT$2,355",建國北路2段64巷9號,4.0,台北,中山區,"NT$2,200 - NT$4,212",4.0,383,https://media-cdn.tripadvisor.com/media/photo-s/01/8a/55/7c/vip.jpg,免費高速上網 (WiFi),,
台湾101 B&B,"台北排名第 48 的超值住宿地點，共 1,200 家",https://www.tripadvisor.com.tw/Hotel_Review-g13808515-d6000566-Reviews-Formosa101_Hostel-Xinyi_District_Taipei.html,25.0288143157959,121.55708312988281,"NT$1,108",基隆路二段115號9樓,2.0,台北,信義區,"NT$566 - NT$2,012",5.0,290,https://media-cdn.tripadvisor.com/media/photo-s/0e/ae/50/a3/common-room.jpg,"禁菸客房, 套房, 空調設施, 客房服務, 小廚房","免費高速上網 (WiFi), 免費網際網路, 無線網路, 公用無線網路, 免費早餐, 自助式早餐, 機場接送, 禁菸飯店, 網際網路",
蜂巢旅店,"台北排名第 49 的超值住宿地點，共 1,200 家",https://www.tripadvisor.com.tw/Hotel_Review-g13806451-d4134607-Reviews-Bee_House_Taipei_Station_Branch-Datong_Taipei.html,25.051021575927734,121.51545715332031,"NT$1,531",大同區太原路57號,3.5,台北,大同,"NT$2,043 - NT$4,118",4.5,1539,https://media-cdn.tripadvisor.com/media/photo-s/09/b8/ff/b0/deluxe-triple-room-single-beds--v.jpg,"禁菸客房, 家庭房, 空調設施, 房務, 保險箱, 冰箱, 平板電視","免費高速上網 (WiFi), 免費網際網路, 餐廳, 提供早餐, 禮賓服務, 禁菸飯店, 洗衣服務, 自助式洗衣, 無線網路, 公用無線網路, 網際網路",
福泰桔子商務旅館 - 館前店,"台北排名第 50 的超值住宿地點，共 1,200 家",https://www.tripadvisor.com.tw/Hotel_Review-g13808853-d1533888-Reviews-Orange_Hotel_Guanqian-Zhongzheng_District_Taipei.html,25.045124053955078,121.51485443115234,"NT$1,616",館前路22號,3.0,台北,中正區,"NT$1,855 - NT$3,081",4.5,340,https://media-cdn.tripadvisor.com/media/photo-s/0e/77/a4/35/caption.jpg,"禁菸客房, 空調設施, 保險箱, 冰箱, 平板電視","免費高速上網 (WiFi), 免費網際網路, 無線網路, 公用無線網路, 禮賓服務, 禁菸飯店, 洗衣服務, 自助式洗衣, 網際網路",
台北文華東方酒店,"台北排名第 51 的超值住宿地點，共 1,200 家",https://www.tripadvisor.com.tw/Hotel_Review-g13806900-d1416364-Reviews-Mandarin_Oriental_Taipei-Songshan_Taipei.html,25.05560302734375,121.54839324951172,"NT$9,523",松山區敦化北路158號,5.0,台北,松山,"NT$11,002 - NT$26,248",4.5,1605,https://media-cdn.tripadvisor.com/media/photo-s/18/5c/83/90/lobby.jpg,"套房, 房務, 客房服務, 保險箱, 平板電視","停車, 免費網際網路, 游泳池, 有健身房的健身中心, 酒吧/酒廊, 保姆服務, 提供上網服務的商務中心, 會議設施, 無線網路, 付費無線網路, 網際網路, 桑拿, 室外游泳池, 溫水游泳池, 餐廳, 提供早餐, 自助式早餐, 宴會廳, 會議室, Spa, 禮賓服務, 管家服務, 乾洗服務, 洗衣服務","NT$10,000"
鉑泊客旅店,"台北排名第 52 的超值住宿地點，共 1,200 家",https://www.tripadvisor.com.tw/Hotel_Review-g13808853-d8559168-Reviews-Poshpacker_Hotel-Zhongzheng_District_Taipei.html,25.045095443725586,121.51338958740234,"NT$1,286",重慶南路一段39號,2.5,台北,中正區,"NT$1,069 - NT$2,169",4.5,207,https://media-cdn.tripadvisor.com/media/photo-s/0f/80/b0/65/caption.jpg,"禁菸客房, 空調設施, 冰箱, 平板電視","免費高速上網 (WiFi), 免費網際網路, 無線網路, 公用無線網路, 網際網路, 機場接送, 禁菸飯店, 自助式洗衣",
福泰桔子商務旅館 - 開封店,"台北排名第 53 的超值住宿地點，共 1,200 家",https://www.tripadvisor.com.tw/Hotel_Review-g13808853-d1020693-Reviews-Orange_Hotel_Kaifong-Zhongzheng_District_Taipei.html,25.04595184326172,121.51254272460938,"NT$1,609",中正區開封街一段41號,3.0,台北,中正區,"NT$1,886 - NT$3,332",4.0,220,https://media-cdn.tripadvisor.com/media/photo-s/0d/fe/dc/99/caption.jpg,"禁菸客房, 套房, 空調設施, 冰箱, 平板電視","免費高速上網 (WiFi), 免費網際網路, 無線網路, 公用無線網路, 網際網路, 提供早餐, 禁菸飯店",
歐華酒店,"台北排名第 54 的超值住宿地點，共 1,200 家",https://www.tripadvisor.com.tw/Hotel_Review-g13808671-d306458-Reviews-The_Riviera_Hotel-Zhongshan_District_Taipei.html,25.06825065612793,121.52568054199219,"NT$3,073",林森北路646號,4.5,台北,中山區,"NT$3,395 - NT$7,450",4.5,904,https://media-cdn.tripadvisor.com/media/photo-s/17/89/89/b9/caption.jpg,"禁菸客房, 套房, 家庭房, 空調設施, 客房服務, 迷你吧, 冰箱, 平板電視","免費停車, 免費高速上網 (WiFi), 有健身房的健身中心, 酒吧/酒廊, 機場接送, 提供上網服務的商務中心, 會議設施, 禮賓服務, 停車, 免費網際網路, 無線網路, 公用無線網路, 網際網路, 餐廳, 自助式早餐, 巴士接駁服務, 宴會廳, 會議室, 禁菸飯店, 乾洗服務, 洗衣服務","NT$3,896"
台北碧瑤飯店,"台北排名第 55 的超值住宿地點，共 1,200 家",https://www.tripadvisor.com.tw/Hotel_Review-g13806900-d455560-Reviews-Hotel_B_Taipei-Songshan_Taipei.html,25.048038482666016,121.54469299316406,"NT$1,773",八德路二段367號,3.0,台北,松山,"NT$1,980 - NT$5,218",4.0,185,https://media-cdn.tripadvisor.com/media/photo-s/05/1a/f7/21/caption.jpg,"禁菸客房, 家庭房, 空調設施, 冰箱, 平板電視","免費高速上網 (WiFi), 免費網際網路, 免費早餐, 提供上網服務的商務中心, 會議設施, 禁菸飯店, 乾洗服務, 自助式洗衣, 無線網路, 公用無線網路, 網際網路, 餐廳, 自助式早餐, 會議室","NT$2,182"
捷絲旅台北西門館,"台北排名第 56 的超值住宿地點，共 1,200 家",https://www.tripadvisor.com.tw/Hotel_Review-g13808853-d1534317-Reviews-Just_Sleep_Ximending-Zhongzheng_District_Taipei.html,25.04517936706543,121.50936126708984,"NT$2,212",中正區中華路一段41號,3.5,台北,中正區,"NT$2,861 - NT$6,130",4.5,1696,https://media-cdn.tripadvisor.com/media/photo-s/14/8a/40/76/exterior.jpg,"禁菸客房, 家庭房, 空調設施, 房務, 保險箱, 冰箱, 平板電視","免費高速上網 (WiFi), 免費網際網路, 免費早餐, 提供早餐, 禮賓服務, 禁菸飯店, 乾洗服務, 洗衣服務, 無線網路, 網際網路, 自助式早餐, 自助式洗衣",
台北北門世民酒店,"台北排名第 57 的超值住宿地點，共 1,200 家",https://www.tripadvisor.com.tw/Hotel_Review-g13808853-d12419761-Reviews-CitizenM_Taipei_North_Gate-Zhongzheng_District_Taipei.html,25.047422409057617,121.51051330566406,"NT$2,035",中正區中華路一段3號,4.0,台北,中正區,"NT$2,389 - NT$4,464",4.5,548,https://media-cdn.tripadvisor.com/media/photo-s/14/91/2b/e5/lobby.jpg,"禁菸客房, 隔音室, 空調設施, 書桌, 房務, 冰箱, 平板電視, 步入式淋浴間, 電話, 瓶裝水, 私人浴室, 隨選電影, 免費衛浴用品, 吹風機","免費高速上網 (WiFi), 酒吧/酒廊, 會議設施, 會議室, 禮品商店, 禁菸飯店, 24 小時服務櫃台, 快速辦理入住/退房, 免費網際網路, 無線網路, 公用無線網路, 商務中心有免費無線網路, 網際網路, 咖啡館, 餐廳, 提供早餐, 自助式早餐, 共用休息室/電視區, 洗衣服務","NT$2,035"
雀客旅館,"台北排名第 58 的超值住宿地點，共 1,200 家",https://www.tripadvisor.com.tw/Hotel_Review-g13808671-d5602542-Reviews-CHECK_inn_Taipei-Zhongshan_District_Taipei.html,25.05946159362793,121.53337860107422,"NT$1,900",松江路253號,3.0,台北,中山區,"NT$2,169 - NT$3,332",4.5,534,https://media-cdn.tripadvisor.com/media/photo-s/07/41/a8/35/caption.jpg,"禁菸客房, 空調設施, 冰箱, 平板電視","免費停車, 停車, 免費高速上網 (WiFi), 餐廳, 禮賓服務, 禁菸飯店, 乾洗服務, 洗衣服務, 免費網際網路, 無線網路, 公用無線網路, 網際網路, 提供早餐, 自助式洗衣","NT$2,044"
台北捷絲旅林森館,"台北排名第 59 的超值住宿地點，共 1,200 家",https://www.tripadvisor.com.tw/Hotel_Review-g13808671-d1749289-Reviews-Just_Sleep_Lin_Sen-Zhongshan_District_Taipei.html,25.050647735595703,121.5250244140625,"NT$2,156",林森北路117號3樓,3.5,台北,中山區,"NT$2,169 - NT$3,741",4.5,807,https://media-cdn.tripadvisor.com/media/photo-s/14/8a/40/68/exterior.jpg,免費高速上網 (WiFi),,"NT$2,311"
捷絲旅臺大尊賢館,"台北排名第 60 的超值住宿地點，共 1,200 家",https://www.tripadvisor.com.tw/Hotel_Review-g13811269-d4023325-Reviews-Just_Sleep_NTU-Da_an_Taipei.html,25.013206481933594,121.53607940673828,"NT$2,580",大安區羅斯福路四段83號,3.5,台北,大安,"NT$2,641 - NT$5,375",5.0,408,https://media-cdn.tripadvisor.com/media/photo-s/14/cd/42/95/exterior.jpg,"禁菸客房, 套房, 家庭房, 空調設施, 冰箱, 平板電視","免費高速上網 (WiFi), 免費早餐, 提供上網服務的商務中心, 會議室, 禮賓服務, 禁菸飯店, 乾洗服務, 洗衣服務, 免費網際網路, 無線網路, 公用無線網路, 網際網路, 餐廳, 自助式早餐, 自助式洗衣",
路境行旅,"台北排名第 61 的超值住宿地點，共 1,200 家",https://www.tripadvisor.com.tw/Hotel_Review-g13808853-d12404865-Reviews-Finders_Hotel-Zhongzheng_District_Taipei.html,25.0432071685791,121.51302337646484,"NT$1,326",中正區重慶南路一段86號7-11樓,3.0,台北,中正區,"NT$1,635 - NT$4,432",4.5,175,https://media-cdn.tripadvisor.com/media/photo-s/0f/65/86/97/caption.jpg,"禁菸客房, 套房, 家庭房, 空調設施, 房務, 冰箱","免費高速上網 (WiFi), 免費網際網路, 兒童活動 (適合兒童/家庭), 機場接送, 禮賓服務, 禁菸飯店, 乾洗服務, 洗衣服務, 無線網路, 公用無線網路, 網際網路","NT$1,496"
丰居旅店雙連館,"台北排名第 62 的超值住宿地點，共 1,200 家",https://www.tripadvisor.com.tw/Hotel_Review-g13808671-d4463155-Reviews-Via_Hotel_Loft-Zhongshan_District_Taipei.html,25.05792999267578,121.5245132446289,"NT$2,999",民生東路一段42號2樓,3.0,台北,中山區,"NT$1,572 - NT$6,318",4.5,762,https://media-cdn.tripadvisor.com/media/photo-s/0a/6d/45/07/voyage-room--v10498791.jpg,"禁菸客房, 家庭房, 空調設施, 冰箱, 平板電視","免費高速上網 (WiFi), 免費網際網路, 無線網路, 公用無線網路, 免費早餐, 禮賓服務, 禁菸飯店, 自助式洗衣, 網際網路","NT$1,541"
倆人旅店,"台北排名第 63 的超值住宿地點，共 1,200 家",https://www.tripadvisor.com.tw/Hotel_Review-g13806427-d1993302-Reviews-Hotel_DOUBLE_ONE-Beitou_Taipei.html,25.136882781982422,121.51343536376953,"NT$2,922",北投區幽雅路11號,3.5,台北,北投,"NT$2,798 - NT$6,350",4.5,507,https://media-cdn.tripadvisor.com/media/photo-s/09/80/07/3d/caption.jpg,"禁菸客房, 套房, 家庭房, 空調設施, 冰箱, 平板電視","免費停車, 免費高速上網 (WiFi), 免費網際網路, 浴缸, 免費早餐, 巴士接駁服務, 禮賓服務, 禁菸飯店, 無線網路, 公用無線網路, 網際網路, 餐廳, 自助式早餐",
老爺會館台北林森,"台北排名第 64 的超值住宿地點，共 1,200 家",https://www.tripadvisor.com.tw/Hotel_Review-g13808671-d4439685-Reviews-Royal_Inn_Taipei_Linsen-Zhongshan_District_Taipei.html,25.04966926574707,121.5248794555664,"NT$2,231",林森北路83號4樓 Near Huashan 1914 Creative Park,3.0,台北,中山區,"NT$2,578 - NT$4,998",4.5,250,https://media-cdn.tripadvisor.com/media/photo-s/11/5a/58/91/business-room.jpg,"禁菸客房, 套房, 家庭房, 空調設施, 冰箱, 平板電視","免費高速上網 (WiFi), 免費網際網路, 無線網路, 免費早餐, 自助式早餐, 禁菸飯店, 洗衣服務, 自助式洗衣, 公用無線網路, 網際網路","NT$2,299"
台北天成大飯店,"台北排名第 65 的超值住宿地點，共 1,200 家",https://www.tripadvisor.com.tw/Hotel_Review-g13808853-d455561-Reviews-Cosmos_Hotel_Taipei-Zhongzheng_District_Taipei.html,25.04625701904297,121.51827239990234,"NT$2,639",中正區忠孝西路一段43號 Zhongzheng Dist,4.0,台北,中正區,"NT$2,798 - NT$4,904",4.5,4233,https://media-cdn.tripadvisor.com/media/photo-s/11/6f/72/5e/caption.jpg,"禁菸客房, 套房, 家庭房, 空調設施, 房務, 客房服務, 迷你吧, 平板電視, 保險箱, 冰箱","免費停車, 免費高速上網 (WiFi), 有健身房的健身中心, 浴缸, 酒吧/酒廊, 提供上網服務的商務中心, 會議設施, 禮賓服務, 停車, 免費網際網路, 無線網路, 網際網路, 餐廳, 提供早餐, 自助式早餐, 宴會廳, 會議室, 禁菸飯店, 乾洗服務, 洗衣服務","NT$2,727"
新驛旅店 - 台北車站三館,"台北排名第 66 的超值住宿地點，共 1,200 家",https://www.tripadvisor.com.tw/Hotel_Review-g13806451-d1950018-Reviews-CityInn_Hotel_Taipei_Station_Branch_III-Datong_Taipei.html,25.051008224487305,121.51667785644531,"NT$1,754",長安西路77號,3.5,台北,大同,"NT$1,760 - NT$4,872",4.5,1488,https://media-cdn.tripadvisor.com/media/photo-s/0d/b8/db/52/cityinn-hotel-taipei.jpg,"禁菸客房, 家庭房, 空調設施, 房務, 保險箱, 冰箱, 平板電視","免費高速上網 (WiFi), 免費網際網路, 機場接送, 禮賓服務, 禁菸飯店, 乾洗服務, 洗衣服務, 自助式洗衣, 無線網路, 網際網路","NT$1,766"
喜瑞飯店,"台北排名第 67 的超值住宿地點，共 1,200 家",https://www.tripadvisor.com.tw/Hotel_Review-g13808671-d598759-Reviews-Ambience_Hotel-Zhongshan_District_Taipei.html,25.04802703857422,121.5294189453125,"NT$2,108",長安東路一段64號,3.5,台北,中山區,"NT$2,483 - NT$4,212",4.5,1857,https://media-cdn.tripadvisor.com/media/photo-s/0d/a2/ac/06/caption.jpg,"禁菸客房, 家庭房, 空調設施, 保險箱, 迷你吧, 冰箱, 平板電視","停車, 免費高速上網 (WiFi), 免費網際網路, 免費早餐, 禮賓服務, 禁菸飯店, 乾洗服務, 洗衣服務, 無線網路, 公用無線網路, 網際網路, 酒吧/酒廊, 提供早餐, 自助式早餐, 自助式洗衣","NT$2,364"
雀客旅館,"台北排名第 68 的超值住宿地點，共 1,200 家",https://www.tripadvisor.com.tw/Hotel_Review-g13808671-d5602542-Reviews-CHECK_inn_Taipei-Zhongshan_District_Taipei.html,25.05946159362793,121.53337860107422,"NT$1,900",松江路253號,3.0,台北,中山區,"NT$2,169 - NT$3,332",4.5,534,https://media-cdn.tripadvisor.com/media/photo-s/07/41/a8/35/caption.jpg,餐廳,,"NT$2,044"
台北王朝大酒店,"台北排名第 69 的超值住宿地點，共 1,200 家",https://www.tripadvisor.com.tw/Hotel_Review-g13806900-d306449-Reviews-Sunworld_Dynasty_Hotel_Taipei-Songshan_Taipei.html,25.052717208862305,121.54805755615234,"NT$2,251",松山區敦化北路100號,3.5,台北,松山,"NT$2,735 - NT$5,312",4.0,1110,https://media-cdn.tripadvisor.com/media/photo-s/15/28/83/10/sunworld-dynasty-hotel.jpg,"禁菸客房, 套房, 家庭房, 空調設施, 客房服務, 迷你吧, 冰箱, 平板電視","免費停車, 免費高速上網 (WiFi), 游泳池, 有健身房的健身中心, 餐廳, 機場接送, 提供上網服務的商務中心, 會議設施, 免費網際網路, 無線網路, 公用無線網路, 網際網路, 浴缸, 成人游泳池, 室外游泳池, 溫水游泳池, 自助式早餐, 宴會廳, 會議室, Spa, 禮賓服務, 禁菸飯店, 乾洗服務, 洗衣服務","NT$3,429"
台北 柔美精品商旅,"台北排名第 70 的超值住宿地點，共 1,200 家",https://www.tripadvisor.com.tw/Hotel_Review-g13808671-d1425877-Reviews-Taipei_Roumei_Boutique_Hotel-Zhongshan_District_Taipei.html,25.054344177246094,121.53599548339844,"NT$2,355",建國北路2段64巷9號,4.0,台北,中山區,"NT$2,200 - NT$4,212",4.0,383,https://media-cdn.tripadvisor.com/media/photo-s/01/8a/55/7c/vip.jpg,"禁菸客房, 套房, 空調設施, 迷你吧, 冰箱, 平板電視","免費停車, 免費高速上網 (WiFi), 有健身房的健身中心, 浴缸, 餐廳, 機場接送, 提供上網服務的商務中心, 會議室, 停車, 免費網際網路, 無線網路, 公用無線網路, 網際網路, 自助式早餐, 禮賓服務, 禁菸飯店, 乾洗服務, 洗衣服務, 自助式洗衣",
伸適商旅,"台北排名第 71 的超值住宿地點，共 1,200 家",https://www.tripadvisor.com.tw/Hotel_Review-g13808671-d1218729-Reviews-Hotel_Sense-Zhongshan_District_Taipei.html,25.060914993286133,121.52572631835938,"NT$9,700",中山區林森北路477號,4.0,台北,中山區,"NT$2,483 - NT$5,124",4.0,199,https://media-cdn.tripadvisor.com/media/photo-s/0b/c2/f1/e2/deluxe-room.jpg,餐廳,,"NT$2,554"
喜來登大飯店,"台北排名第 72 的超值住宿地點，共 1,200 家",https://www.tripadvisor.com.tw/Hotel_Review-g13808853-d301805-Reviews-Sheraton_Grand_Taipei_Hotel-Zhongzheng_District_Taipei.html,25.04484748840332,121.52216339111328,"NT$2,660",忠孝東路一段12號,4.5,台北,中正區,"NT$6,256 - NT$9,776",4.0,1707,https://media-cdn.tripadvisor.com/media/photo-s/18/00/24/75/lobby.jpg,游泳池,,"NT$5,900"
薆悅精品,"台北排名第 73 的超值住宿地點，共 1,200 家",https://www.tripadvisor.com.tw/Hotel_Review-g13806951-d8700927-Reviews-Inhouse_Boutique-Wanhua_Taipei.html,25.04307746887207,121.50676727294922,"NT$2,660",萬華區成都路27巷8號,4.0,台北,萬華,"NT$2,955 - NT$5,407",4.5,155,https://media-cdn.tripadvisor.com/media/photo-s/0e/29/22/f0/caption.jpg,"禁菸客房, 套房, 空調設施, 冰箱, 平板電視","免費高速上網 (WiFi), 免費網際網路, 無線網路, 公用無線網路, 免費早餐, 酒吧/酒廊, 餐廳, 禁菸飯店, 網際網路, 提供早餐",
台北北投雅樂軒酒店,"台北排名第 74 的超值住宿地點，共 1,200 家",https://www.tripadvisor.com.tw/Hotel_Review-g13806427-d11978011-Reviews-Aloft_Taipei_Beitou-Beitou_Taipei.html,25.128265380859375,121.49799346923828,"NT$3,173",大業路300巷1號,4.0,台北,北投,"NT$3,646 - NT$5,312",4.5,338,https://media-cdn.tripadvisor.com/media/photo-s/0f/48/a8/3a/breezy-suite.jpg,免費停車,,"NT$3,200"
好得文旅,"台北排名第 75 的超值住宿地點，共 1,200 家",https://www.tripadvisor.com.tw/Hotel_Review-g13808671-d10387162-Reviews-Chill_Roof_Hotel-Zhongshan_District_Taipei.html,25.052200317382812,121.52831268310547,"NT$2,383",南京東路二段11號11層 中山区,3.0,台北,中山區,"NT$2,420 - NT$4,275",4.5,63,https://media-cdn.tripadvisor.com/media/photo-s/0c/fe/17/e4/room-no06-corbusier.jpg,"禁菸客房, 套房, 家庭房, 空調設施, 冰箱","免費高速上網 (WiFi), 免費網際網路, 無線網路, 網際網路, 兒童活動 (適合兒童/家庭), 機場接送, 禁菸飯店, 自助式洗衣",
台北馥敦-復南館,"台北排名第 76 的超值住宿地點，共 1,200 家",https://www.tripadvisor.com.tw/Hotel_Review-g13811269-d503406-Reviews-Taipei_Fullerton_Hotel_South-Da_an_Taipei.html,25.03141212463379,121.54379272460938,"NT$2,874",復興南路二段41號,4.0,台北,大安,"NT$3,145 - NT$5,595",4.0,362,https://media-cdn.tripadvisor.com/media/photo-s/0e/1e/12/d6/fullerton-room-with-shower--v1532.jpg,"禁菸客房, 套房, 家庭房, 空調設施, 客房服務, 迷你吧, 冰箱, 平板電視","免費高速上網 (WiFi), 有健身房的健身中心, 免費早餐, 提供上網服務的商務中心, 會議設施, Spa, 禮賓服務, 禁菸飯店, 免費網際網路, 無線網路, 公用無線網路, 網際網路, 餐廳, 提供早餐, 自助式早餐, 會議室, 乾洗服務, 洗衣服務","NT$3,375"
沐蘭台北時尚精品旅館,"台北排名第 77 的超值住宿地點，共 1,200 家",https://www.tripadvisor.com.tw/Hotel_Review-g13808671-d2296732-Reviews-Mulan_Motel_Taipei-Zhongshan_District_Taipei.html,25.080900192260742,121.56157684326172,"NT$2,431",中山區植福路299號,3.5,台北,中山區,"NT$2,798 - NT$4,495",4.5,34,https://media-cdn.tripadvisor.com/media/photo-s/11/f9/ce/f1/caption.jpg,免費停車,,
台北馥華南港館 ,"台北排名第 78 的超值住宿地點，共 1,200 家",https://www.tripadvisor.com.tw/Hotel_Review-g13806753-d2026524-Reviews-Taipei_Forward_Hotel_Nangang_Branch-Nangang_Taipei.html,25.059165954589844,121.6141128540039,"NT$2,766",南港區三重路23號,3.0,台北,南港,"NT$2,169 - NT$4,149",4.0,89,https://media-cdn.tripadvisor.com/media/photo-s/05/45/8a/86/caption.jpg,餐廳,,
台北東旅,"台北排名第 79 的超值住宿地點，共 1,200 家",https://www.tripadvisor.com.tw/Hotel_Review-g13806900-d12463118-Reviews-Hotel_East_Taipei-Songshan_Taipei.html,25.051605224609375,121.56034851074219,"NT$2,766",松山區南京東路五段97號,3.5,台北,松山,"NT$2,766 - NT$4,495",4.5,548,https://media-cdn.tripadvisor.com/media/photo-s/10/42/3b/42/caption.jpg,"禁菸客房, 套房, 空調設施, 迷你吧, 冰箱","免費高速上網 (WiFi), 免費網際網路, 浴缸, 免費早餐, 機場接送, 禁菸飯店, 洗衣服務, 自助式洗衣, 無線網路, 網際網路, 餐廳, 提供早餐",
艾米旅店,"台北排名第 80 的超值住宿地點，共 1,200 家",https://www.tripadvisor.com.tw/Hotel_Review-g13808671-d6931599-Reviews-I_m_Inn_Taipei-Zhongshan_District_Taipei.html,25.0567684173584,121.5238037109375,NT$991,中山北路二段65巷2弄3號,2.5,台北,中山區,"NT$597 - NT$2,138",4.0,71,https://media-cdn.tripadvisor.com/media/photo-s/0b/4f/ef/23/lobby--v11419051.jpg,"禁菸客房, 空調設施","免費高速上網 (WiFi), 免費網際網路, 無線網路, 公用無線網路, 網際網路, 禁菸飯店, 自助式洗衣",
京都商務旅館,"台北排名第 81 的超值住宿地點，共 1,200 家",https://www.tripadvisor.com.tw/Hotel_Review-g13808671-d505597-Reviews-Kyoto_Hotel-Zhongshan_District_Taipei.html,25.05483055114746,121.52494812011719,"NT$2,402",中山區長春路38號,3.0,台北,中山區,"NT$2,735 - NT$4,589",4.0,35,https://media-cdn.tripadvisor.com/media/photo-s/01/d9/bd/aa/kyoto-hotel.jpg,客房服務,,
馥麗精品旅館,"台北排名第 82 的超值住宿地點，共 1,200 家",https://www.tripadvisor.com.tw/Hotel_Review-g13806767-d582952-Reviews-Elegance_Hotel-Neihu_Taipei.html,25.082067489624023,121.56813049316406,"NT$1,299",內湖區內湖路一段325號,3.0,台北,內湖,"NT$2,295 - NT$2,892",3.0,15,https://media-cdn.tripadvisor.com/media/photo-s/03/8f/d4/e6/elegance-hotel.jpg,,"免費高速上網 (WiFi), 免費網際網路, 無線網路, 網際網路, 餐廳, 提供上網服務的商務中心",
凡登台北商務旅店,"台北排名第 83 的超值住宿地點，共 1,200 家",https://www.tripadvisor.com.tw/Hotel_Review-g13811269-d1861832-Reviews-Vendome_Hotel_Taipei-Da_an_Taipei.html,25.041471481323242,121.55162048339844,NT$975,大安區忠孝東路四段197號12樓,3.5,台北,大安,"NT$1,415 - NT$3,804",3.0,159,https://media-cdn.tripadvisor.com/media/photo-s/09/ce/b1/26/front-desk--v9667762.jpg,免費高速上網 (WiFi),,
西門大飯店,"台北排名第 84 的超值住宿地點，共 1,200 家",https://www.tripadvisor.com.tw/Hotel_Review-g13806951-d2419562-Reviews-Ximen_Hotel-Wanhua_Taipei.html,25.04568099975586,121.50906372070312,,中華路一段78號 2樓,3.0,台北,萬華,"NT$1,257 - NT$3,018",3.0,91,https://media-cdn.tripadvisor.com/media/photo-s/13/47/9f/55/caption.jpg,免費高速上網 (WiFi),,
儷夏商旅 - 西門捷運館,"台北排名第 85 的超值住宿地點，共 1,200 家",https://www.tripadvisor.com.tw/Hotel_Review-g13806951-d3810028-Reviews-Muzik_Hotel_Ximen_Station_Branch-Wanhua_Taipei.html,25.044679641723633,121.5085678100586,"NT$1,203",萬華區中華路1段90號6樓 Ximending,3.0,台北,萬華,"NT$1,477 - NT$3,709",4.5,822,https://media-cdn.tripadvisor.com/media/photo-s/15/85/b3/51/caption.jpg,免費高速上網 (WiFi),,"NT$1,203"
摩莎曼拉精品旅館-台北車站館,"台北排名第 86 的超值住宿地點，共 1,200 家",https://www.tripadvisor.com.tw/Hotel_Review-g13808853-d8663905-Reviews-Moshamanla_Hotel_Main_Station-Zhongzheng_District_Taipei.html,25.04615592956543,121.51289367675781,"NT$1,108",中正區開封街一段33號,3.0,台北,中正區,"NT$1,100 - NT$2,986",3.5,325,https://media-cdn.tripadvisor.com/media/photo-s/0d/6f/a2/a4/caption.jpg,餐廳,,"NT$1,108"
樂客商旅,"台北排名第 87 的超值住宿地點，共 1,200 家",https://www.tripadvisor.com.tw/Hotel_Review-g13808853-d2026518-Reviews-Look_Hotel-Zhongzheng_District_Taipei.html,25.04347038269043,121.51338958740234,"NT$1,481","中正區襄陽路8號 No.8, Xiangyang Rd.Zhongzheng Dist.",3.5,台北,中正區,"NT$1,666 - NT$9,116",3.5,183,https://media-cdn.tripadvisor.com/media/photo-s/10/ec/d9/eb/caption.jpg,"禁菸客房, 套房, 空調設施, 冰箱, 平板電視","免費高速上網 (WiFi), 免費網際網路, 無線網路, 免費早餐, 提供早餐, 禁菸飯店, 洗衣服務, 自助式洗衣, 公用無線網路, 網際網路, 自助式早餐","NT$1,481"
北投春天酒店,"台北排名第 88 的超值住宿地點，共 1,200 家",https://www.tripadvisor.com.tw/Hotel_Review-g13806427-d455550-Reviews-Spring_City_Resort-Beitou_Taipei.html,25.137737274169922,121.5135269165039,"NT$2,597",北投區幽雅路18號,4.5,台北,北投,"NT$3,929 - NT$6,570",3.5,310,https://media-cdn.tripadvisor.com/media/photo-s/0a/09/15/6c/pool--v9741149.jpg,"禁菸客房, 套房, 家庭房, 空調設施, 冰箱, 平板電視","免費停車, 免費高速上網 (WiFi), 游泳池, 有健身房的健身中心, 免費早餐, 免費接駁或計程車服務, 會議設施, 會議室, 停車, 免費網際網路, 無線網路, 公用無線網路, 網際網路, 浴缸, 室外游泳池, 溫水游泳池, 餐廳, 自助式早餐, 巴士接駁服務, Spa, 禮賓服務, 禁菸飯店, 洗衣服務","NT$3,439"
豪景大飯店,"台北排名第 89 的超值住宿地點，共 1,200 家",https://www.tripadvisor.com.tw/Hotel_Review-g13806951-d668803-Reviews-Hotel_Riverview_Taipei-Wanhua_Taipei.html,25.044633865356445,121.50140380859375,,環河南路一段77號,4.0,台北,萬華,"NT$2,043 - NT$6,130",3.5,247,https://media-cdn.tripadvisor.com/media/photo-s/11/74/1e/6a/street--v17975179.jpg,餐廳,,"NT$1,991"
麗敦精緻旅店,"台北排名第 90 的超值住宿地點，共 1,200 家",https://www.tripadvisor.com.tw/Hotel_Review-g13806879-d1743019-Reviews-Reedon_Boutique_Hotel-Shilin_Taipei.html,25.102415084838867,121.52147674560547,"NT$2,124",士林區福國路106號,3.5,台北,士林,"NT$2,263 - NT$3,646",4.0,33,https://media-cdn.tripadvisor.com/media/photo-s/0f/2c/36/4b/caption.jpg,"禁菸客房, 套房, 空調設施, 迷你吧, 冰箱","免費停車, 免費高速上網 (WiFi), 免費早餐, 機場接送, 提供上網服務的商務中心, 禁菸飯店, 洗衣服務, 自助式洗衣, 免費網際網路, 無線網路, 網際網路, 餐廳","NT$2,124"
新驛旅店 - 西門捷運店,"台北排名第 91 的超值住宿地點，共 1,200 家",https://www.tripadvisor.com.tw/Hotel_Review-g13808853-d2017876-Reviews-CityInn_Hotel_Plus_Ximending_Branch-Zhongzheng_District_Taipei.html,25.04400634765625,121.50775146484375,"NT$1,829",中正區寶慶路63號,2.5,台北,中正區,"NT$1,949 - NT$4,024",4.5,1680,https://media-cdn.tripadvisor.com/media/photo-s/0d/e2/dc/c0/caption.jpg,免費高速上網 (WiFi),,"NT$2,667"
台北漫步青年旅店,"台北排名第 92 的超值住宿地點，共 1,200 家",https://www.tripadvisor.com.tw/Hotel_Review-g13806951-d5893025-Reviews-Meander_Taipei_Hostel-Wanhua_Taipei.html,25.041847229003906,121.50926971435547,"NT$1,140",西门町成都路163號,2.0,台北,萬華,"NT$660 - NT$2,798",5.0,767,https://media-cdn.tripadvisor.com/media/photo-s/05/d4/9e/15/caption.jpg,"禁菸客房, 家庭房, 空調設施, 小廚房","免費高速上網 (WiFi), 免費網際網路, 無線網路, 免費早餐, 自助式早餐, 禁菸飯店, 洗衣服務, 自助式洗衣, 公用無線網路, 網際網路","NT$2,184"
台北君悅酒店,"台北排名第 93 的超值住宿地點，共 1,200 家",https://www.tripadvisor.com.tw/Hotel_Review-g13808515-d306447-Reviews-Grand_Hyatt_Taipei-Xinyi_District_Taipei.html,25.04388999938965,121.50240325927734,"NT$6,813",信義區松壽路2號,5.0,台北,信義區,"NT$6,507 - NT$12,605",4.5,3436,https://media-cdn.tripadvisor.com/media/photo-s/18/62/e6/1e/exterior.jpg,"禁菸客房, 套房, 空調設施, 房務, 客房服務, 保險箱, 迷你吧, 平板電視","停車, 免費高速上網 (WiFi), 游泳池, 有健身房的健身中心, 酒吧/酒廊, 夜店/ DJ, 機場接送, 提供上網服務的商務中心, 免費網際網路, 無線網路, 公用無線網路, 網際網路, 桑拿, 成人游泳池, 室外游泳池, 溫水游泳池, 餐廳, 提供早餐, 自助式早餐, 游泳池畔酒吧, 會議設施, 宴會廳, 會議室, 禮賓服務, 禁菸飯店, 管家服務, 乾洗服務, 洗衣服務",
旅樂序精品旅館-站前三館,"台北排名第 94 的超值住宿地點，共 1,200 家",https://www.tripadvisor.com.tw/Hotel_Review-g13808853-d8493751-Reviews-Hotel_Relax_3-Zhongzheng_District_Taipei.html,25.03551483154297,121.56275177001953,"NT$2,194",中正區懷寧街34號,3.0,台北,中正區,"NT$2,106 - NT$4,652",4.5,1307,https://media-cdn.tripadvisor.com/media/photo-s/08/a8/1f/bb/sign-board.jpg,"禁菸客房, 家庭房, 空調設施, 房務, 保險箱, 迷你吧, 冰箱, 平板電視","免費高速上網 (WiFi), 免費網際網路, 免費早餐, 餐廳, 機場接送, 禁菸飯店, 洗衣服務, 自助式洗衣, 無線網路, 公用無線網路, 網際網路, 提供早餐, 自助式早餐","NT$7,500"
城市商旅-南東館,"台北排名第 95 的超值住宿地點，共 1,200 家",https://www.tripadvisor.com.tw/Hotel_Review-g13806900-d2415965-Reviews-City_Suites_Taipei_Nandong-Songshan_Taipei.html,25.045085906982422,121.51406860351562,"NT$1,672",松山區南京東路五段411號,3.5,台北,松山,"NT$1,980 - NT$4,024",4.5,422,https://media-cdn.tripadvisor.com/media/photo-s/10/4c/35/46/caption.jpg,"禁菸客房, 套房, 家庭房, 空調設施, 冰箱, 平板電視","免費高速上網 (WiFi), 餐廳, 機場接送, 提供上網服務的商務中心, 禮賓服務, 禁菸飯店, 乾洗服務, 洗衣服務, 免費網際網路, 無線網路, 公用無線網路, 網際網路, 自助式早餐",
太平洋商旅,"台北排名第 96 的超值住宿地點，共 1,200 家",https://www.tripadvisor.com.tw/Hotel_Review-g13808515-d505594-Reviews-Pacific_Business_Hotel-Xinyi_District_Taipei.html,25.051490783691406,121.5700912475586,"NT$3,325",信義區光復南路495號11樓,3.5,台北,信義區,"NT$3,395 - NT$6,916",4.5,1048,https://media-cdn.tripadvisor.com/media/photo-s/12/98/7e/0f/101.jpg,"山景, 禁菸客房, 家庭房, 空調設施, 書桌, 咖啡壺/茶壺, 平板電視, 吹風機, 城市景觀, 房務, 私人陽台, 保險箱, 電話, 瓶裝水, 熨斗, 冰箱","停車, 免費高速上網 (WiFi), 有健身房的健身中心, 餐廳, 機場接送, 提供上網服務的商務中心, 會議設施, 24 小時保全, 免費網際網路, 無線網路, 公用無線網路, 網際網路, 提供早餐, 自助式早餐, 會議室, 禮賓服務, 外幣兌換服務, 禮品商店, 禁菸飯店, 24 小時辦理入住, 乾洗服務, 洗衣服務, 自助式洗衣, 洗衣機","NT$1,672"
台北萬豪酒店,"台北排名第 97 的超值住宿地點，共 1,200 家",https://www.tripadvisor.com.tw/Hotel_Review-g13808671-d7840139-Reviews-Taipei_Marriott_Hotel-Zhongshan_District_Taipei.html,25.136125564575195,121.50593566894531,"NT$6,746",中山區樂群二路199號,4.5,台北,中山區,"NT$6,727 - NT$10,845",4.5,699,https://media-cdn.tripadvisor.com/media/photo-s/18/ef/c3/5a/exterior.jpg,"禁菸客房, 套房, 家庭房, 空調設施, 房務, 客房服務, 迷你吧, 平板電視","免費停車, 免費高速上網 (WiFi), 游泳池, 有健身房的健身中心, 酒吧/酒廊, 兒童可享免費住宿, 機場接送, 提供上網服務的商務中心, 停車, 免費網際網路, 無線網路, 付費網際網路, 網際網路, 屋頂游泳池, 室外游泳池, 溫水游泳池, 餐廳, 自助式早餐, 會議設施, 宴會廳, 會議室, Spa, 禮賓服務, 禁菸飯店, 乾洗服務, 洗衣服務","NT$1,990"
清翼居采風館,"台北排名第 98 的超值住宿地點，共 1,200 家",https://www.tripadvisor.com.tw/Hotel_Review-g13808853-d8715382-Reviews-Morwing_Hotel_Culture_Vogue-Zhongzheng_District_Taipei.html,25.032297134399414,121.55816650390625,"NT$1,367",南陽街8號5樓,3.0,台北,中正區,"NT$1,320 - NT$3,112",4.5,386,https://media-cdn.tripadvisor.com/media/photo-s/16/44/a1/b0/caption.jpg,免費高速上網 (WiFi),,"NT$3,325"
儷客旅店 - 台北車站館,"台北排名第 99 的超值住宿地點，共 1,200 家",https://www.tripadvisor.com.tw/Hotel_Review-g13808853-d12694494-Reviews-Click_Hotel_Taipei_Main_Station_Branch-Zhongzheng_District_Taipei.html,25.080333709716797,121.5589599609375,"NT$1,543",中正區忠孝西路一段72號5樓,3.0,台北,中正區,"NT$1,792 - NT$4,181",4.5,299,https://media-cdn.tripadvisor.com/media/photo-s/16/1c/f6/ac/caption.jpg,免費高速上網 (WiFi),,"NT$6,717"
台北W飯店,"台北排名第 100 的超值住宿地點，共 1,200 家",https://www.tripadvisor.com.tw/Hotel_Review-g13808515-d1879542-Reviews-W_Taipei-Xinyi_District_Taipei.html,25.04525375366211,121.51608276367188,"NT$8,951",忠孝東路五段10號 Metro Station: Taipei City Hall - Exit 2,5.0,台北,信義區,"NT$9,933 - NT$12,888",4.5,3383,https://media-cdn.tripadvisor.com/media/photo-s/18/e1/13/69/exterior.jpg,"禁菸客房, 套房, 家庭房, 空調設施, 房務, 客房服務, 迷你吧, 平板電視, 保險箱, 冰箱","免費停車, 免費高速上網 (WiFi), 游泳池, 有健身房的健身中心, 酒吧/酒廊, 夜店/ DJ, 兒童可享免費住宿, 機場接送, 停車, 免費網際網路, 無線網路, 公用無線網路, 網際網路, 浴缸, 桑拿, 屋頂游泳池, 成人游泳池, 室外游泳池, 溫水游泳池, 餐廳, 提供早餐, 自助式早餐, 游泳池酒吧, 游泳池畔酒吧, 屋頂酒吧, 提供上網服務的商務中心, 會議設施, 宴會廳, 會議室, Spa, 禮賓服務, 禁菸飯店, 乾洗服務, 洗衣服務","NT$1,387"
丰居旅店西門館,"台北排名第 101 的超值住宿地點，共 1,200 家",https://www.tripadvisor.com.tw/Hotel_Review-g13806951-d3134481-Reviews-Via_Hotel-Wanhua_Taipei.html,25.04686164855957,121.5140609741211,"NT$2,667",中華路一段114巷17號2樓,3.0,台北,萬華,"NT$2,232 - NT$4,935",4.5,737,https://media-cdn.tripadvisor.com/media/photo-s/12/66/3d/90/traveler-s-living-room.jpg,免費高速上網 (WiFi),,
台北中山逸林酒店,"台北排名第 102 的超值住宿地點，共 1,200 家",https://www.tripadvisor.com.tw/Hotel_Review-g13808671-d15661515-Reviews-DoubleTree_by_Hilton_Taipei_Zhongshan-Zhongshan_District_Taipei.html,25.0405216217041,121.56582641601562,"NT$4,943",中山北路一段123號,4.5,台北,中山區,"NT$5,250 - NT$10,751",4.5,126,https://media-cdn.tripadvisor.com/media/photo-s/17/82/8a/b1/doubletree-by-hilton.jpg,"禁菸客房, 套房, 家庭房, 客房服務","免費網際網路, 有健身房的健身中心, 酒吧/酒廊, 機場接送, 提供上網服務的商務中心, 會議設施, 禮賓服務, 禁菸飯店, 無線網路, 公用無線網路, 付費無線網路, 付費網際網路, 網際網路, 餐廳, 提供早餐, 會議室, 乾洗服務, 洗衣服務","NT$9,000"
小公館人文旅舍,"台北排名第 103 的超值住宿地點，共 1,200 家",https://www.tripadvisor.com.tw/Hotel_Review-g13806900-d2153372-Reviews-NK_Hostel-Songshan_Taipei.html,25.04400634765625,121.50775146484375,"NT$4,943",松山區南京東路五段399號5樓,3.0,台北,松山,"NT$692 - NT$3,489",5.0,723,https://media-cdn.tripadvisor.com/media/photo-s/0d/1b/e9/00/deluxe-room-with-private.jpg,免費高速上網 (WiFi),,"NT$2,667"
旅樂序精品旅館 站前一館,"台北排名第 104 的超值住宿地點，共 1,200 家",https://www.tripadvisor.com.tw/Hotel_Review-g13808853-d4023040-Reviews-Hotel_Relax_I-Zhongzheng_District_Taipei.html,25.051389694213867,121.52268981933594,"NT$2,024",中正區館前路8號11樓,3.0,台北,中正區,"NT$2,138 - NT$7,450",4.5,1381,https://media-cdn.tripadvisor.com/media/photo-s/06/90/3c/60/caption.jpg,"禁菸客房, 套房, 家庭房, 空調設施, 保險箱, 冰箱, 平板電視","免費高速上網 (WiFi), 免費網際網路, 免費早餐, 餐廳, 禮賓服務, 禁菸飯店, 乾洗服務, 自助式洗衣, 無線網路, 公用無線網路, 網際網路, 自助式早餐",
亞都麗緻大飯店,"台北排名第 105 的超值住宿地點，共 1,200 家",https://www.tripadvisor.com.tw/Hotel_Review-g13808671-d300627-Reviews-The_Landis_Taipei-Zhongshan_District_Taipei.html,25.051441192626953,121.56981658935547,"NT$3,733",民權東路二段41號,4.5,台北,中山區,"NT$3,709 - NT$7,607",4.5,993,https://media-cdn.tripadvisor.com/media/photo-s/08/76/ac/01/caption.jpg,"禁菸客房, 套房, 家庭房, 空調設施, 房務, 客房服務, 迷你吧, 平板電視, 冰箱","免費停車, 免費高速上網 (WiFi), 有健身房的健身中心, 酒吧/酒廊, 機場接送, 提供上網服務的商務中心, 會議設施, Spa, 停車, 免費網際網路, 無線網路, 公用無線網路, 網際網路, 餐廳, 自助式早餐, 宴會廳, 會議室, 禮賓服務, 禁菸飯店, 乾洗服務, 洗衣服務",
方舟旅店 - 東門館,"台北排名第 106 的超值住宿地點，共 1,200 家",https://www.tripadvisor.com.tw/Hotel_Review-g13808853-d4583280-Reviews-ARK_Hotel_Dongmen-Zhongzheng_District_Taipei.html,25.045801162719727,121.51483917236328,"NT$1,448",信義路二段255號,2.5,台北,中正區,"NT$1,697 - NT$4,055",4.5,246,https://media-cdn.tripadvisor.com/media/photo-s/04/8b/d0/79/caption.jpg,免費高速上網 (WiFi),,
台北馥華商旅松江館,"台北排名第 107 的超值住宿地點，共 1,200 家",https://www.tripadvisor.com.tw/Hotel_Review-g13808671-d1526865-Reviews-Forward_Hotel_Taipei_Songjiang_Branch-Zhongshan_District_Taipei.html,25.062782287597656,121.530029296875,"NT$2,311",中山區一江街3號,3.0,台北,中山區,"NT$2,389 - NT$5,564",4.0,244,https://media-cdn.tripadvisor.com/media/photo-s/16/1f/f7/b8/caption.jpg,"禁菸客房, 家庭房, 空調設施, 私人陽台, 保險箱, 冰箱, 平板電視","免費停車, 免費高速上網 (WiFi), 有健身房的健身中心, 免費早餐, 機場接送, 提供上網服務的商務中心, 會議設施, Spa, 免費網際網路, 無線網路, 公用無線網路, 網際網路, 提供早餐, 自助式早餐, 會議室, 禮賓服務, 禁菸飯店, 乾洗服務, 洗衣服務, 自助式洗衣",
華泰瑞舍,"台北排名第 108 的超值住宿地點，共 1,200 家",https://www.tripadvisor.com.tw/Hotel_Review-g13808671-d2153570-Reviews-Gloria_Residence-Zhongshan_District_Taipei.html,25.03362274169922,121.53146362304688,"NT$2,597",林森北路359號,4.0,台北,中山區,"NT$4,244 - NT$7,639",4.5,372,https://media-cdn.tripadvisor.com/media/photo-s/08/02/f0/5b/gloria.jpg,游泳池,,
璞漣商旅台北車站館,"台北排名第 109 的超值住宿地點，共 1,200 家",https://www.tripadvisor.com.tw/Hotel_Review-g13806451-d6613131-Reviews-Hotel_Puri_Taipei_Station_Branch-Datong_Taipei.html,25.05069923400879,121.53157043457031,"NT$1,662",大同區華陰街46號3樓,3.0,台北,大同,"NT$1,509 - NT$3,709",4.0,301,https://media-cdn.tripadvisor.com/media/photo-s/0b/b0/90/63/hotel-puri-taipei-station.jpg,"禁菸客房, 家庭房, 空調設施, 保險箱, 冰箱, 平板電視","免費高速上網 (WiFi), 免費網際網路, 無線網路, 公用無線網路, 網際網路, 禁菸飯店, 洗衣服務, 自助式洗衣",
和逸飯店 • 台北忠孝館,"台北排名第 110 的超值住宿地點，共 1,200 家",https://www.tripadvisor.com.tw/Hotel_Review-g13808853-d5042984-Reviews-HOTEL_COZZI_Zhongxiao_Taipei-Zhongzheng_District_Taipei.html,25.05744743347168,121.52587127685547,"NT$3,760",中正區忠孝東路一段31號,3.5,台北,中正區,"NT$4,244 - NT$6,884",4.5,461,https://media-cdn.tripadvisor.com/media/photo-s/16/09/50/c3/caption.jpg,"禁菸客房, 套房, 家庭房, 空調設施, 迷你吧, 冰箱, 平板電視","免費停車, 免費高速上網 (WiFi), 免費早餐, 會議設施, 會議室, 禮賓服務, 禁菸飯店, 乾洗服務, 免費網際網路, 無線網路, 公用無線網路, 網際網路, 酒吧/酒廊, 提供早餐, 自助式早餐","NT$4,072"
慶泰飯店,"台北排名第 111 的超值住宿地點，共 1,200 家",https://www.tripadvisor.com.tw/Hotel_Review-g13808671-d455558-Reviews-Taipei_Gala_Hotel-Zhongshan_District_Taipei.html,25.05011558532715,121.51557922363281,"NT$2,066",松江路186號,4.0,台北,中山區,"NT$2,452 - NT$4,684",4.0,529,https://media-cdn.tripadvisor.com/media/photo-s/0d/e0/d8/ca/caption.jpg,"禁菸客房, 套房, 家庭房, 空調設施, 客房服務, 迷你吧, 冰箱, 平板電視","免費停車, 免費高速上網 (WiFi), 餐廳, 機場接送, 提供上網服務的商務中心, 會議設施, 禮賓服務, 禁菸飯店, 免費網際網路, 無線網路, 公用無線網路, 網際網路, 提供早餐, 自助式早餐, 宴會廳, 會議室, 乾洗服務, 洗衣服務, 自助式洗衣","NT$1,662"
台北發現青年旅舍,"台北排名第 112 的超值住宿地點，共 1,200 家",https://www.tripadvisor.com.tw/Hotel_Review-g13808671-d8695328-Reviews-Taipei_Discover_Hostel-Zhongshan_District_Taipei.html,25.04445457458496,121.52520751953125,"NT$2,066",民權東路二段21號5樓,2.0,台北,中山區,"NT$534 - NT$1,352",5.0,83,https://media-cdn.tripadvisor.com/media/photo-s/0b/1d/0c/12/taipei-discover-hostel.jpg,免費高速上網 (WiFi),,"NT$3,995"
天閣酒店 - 台北南西,"台北排名第 113 的超值住宿地點，共 1,200 家",https://www.tripadvisor.com.tw/Hotel_Review-g13808671-d659162-Reviews-THE_Tango_Taipei_NanShi-Zhongshan_District_Taipei.html,25.056556701660156,121.53291320800781,"NT$2,872",中山區南京西路3號,3.5,台北,中山區,"NT$3,426 - NT$5,973",4.5,462,https://media-cdn.tripadvisor.com/media/photo-s/0d/c7/c1/fa/caption.jpg,"禁菸客房, 套房, 空調設施, 保險箱, 微波爐, 迷你吧, 冰箱, 平板電視","免費高速上網 (WiFi), 浴缸, 免費早餐, 提供上網服務的商務中心, Spa, 禮賓服務, 禁菸飯店, 乾洗服務, 免費網際網路, 無線網路, 公用無線網路, 網際網路, 餐廳, 自助式早餐, 洗衣服務","NT$2,629"
台北東京國際飯店,"台北排名第 114 的超值住宿地點，共 1,200 家",https://www.tripadvisor.com.tw/Hotel_Review-g13808671-d1605452-Reviews-Tokyo_International_Hotel-Zhongshan_District_Taipei.html,25.0627384185791,121.52903747558594,"NT$2,872",中山區長春路39號,3.5,台北,中山區,"NT$2,798 - NT$6,884",4.5,567,https://media-cdn.tripadvisor.com/media/photo-s/09/cc/20/a8/lobby--v9187923.jpg,免費高速上網 (WiFi),,
宏都金殿大飯店,"台北排名第 115 的超值住宿地點，共 1,200 家",https://www.tripadvisor.com.tw/Hotel_Review-g13811269-d1219793-Reviews-Hotel_HD_Palace_Taipei-Da_an_Taipei.html,25.052701950073242,121.52165222167969,"NT$2,857",安和路二段100號,3.5,台北,大安,"NT$3,049 - NT$5,784",4.0,334,https://media-cdn.tripadvisor.com/media/photo-s/08/99/2e/3b/caption.jpg,免費高速上網 (WiFi),,"NT$3,218"
太空艙旅店衡陽館,"台北排名第 116 的超值住宿地點，共 1,200 家",https://www.tripadvisor.com.tw/Hotel_Review-g13808853-d6987800-Reviews-Space_Inn_Hengyang_Branch-Zhongzheng_District_Taipei.html,25.05497169494629,121.52582550048828,NT$586,衡陽路51號B1,2.0,台北,中正區,"NT$440 - NT$1,415",4.5,293,https://media-cdn.tripadvisor.com/media/photo-s/06/d0/68/d0/caption.jpg,"禁菸客房, 家庭房, 空調設施, 小廚房","免費高速上網 (WiFi), 免費網際網路, 無線網路, 網際網路, 禁菸飯店, 洗衣服務, 自助式洗衣","NT$3,342"
瘋台北青旅,"台北排名第 117 的超值住宿地點，共 1,200 家",https://www.tripadvisor.com.tw/Hotel_Review-g13808853-d6931589-Reviews-Fun_Inn_Taipei-Zhongzheng_District_Taipei.html,25.0283203125,121.54974365234375,,中正區延平南路21號2樓,2.0,台北,中正區,"NT$409 - NT$1,037",5.0,342,https://media-cdn.tripadvisor.com/media/photo-s/14/34/fd/61/caption.jpg,免費高速上網 (WiFi),,
永安棧,"台北排名第 118 的超值住宿地點，共 1,200 家",https://www.tripadvisor.com.tw/Hotel_Review-g13806951-d3654334-Reviews-WESTGATE_Hotel-Wanhua_Taipei.html,25.042346954345703,121.5121841430664,"NT$3,500",中華路一段150號,4.0,台北,萬華,"NT$3,866 - NT$7,041",4.5,2035,https://media-cdn.tripadvisor.com/media/photo-s/03/d0/45/9c/caption.jpg,"禁菸客房, 套房, 家庭房, 空調設施, 房務, 客房服務, 迷你吧, 平板電視, 保險箱, 冰箱","免費高速上網 (WiFi), 有健身房的健身中心, 免費早餐, 提供上網服務的商務中心, 會議設施, 禮賓服務, 禁菸飯店, 乾洗服務, 免費網際網路, 無線網路, 公用無線網路, 網際網路, 酒吧/酒廊, 餐廳, 提供早餐, 自助式早餐, 會議室, 洗衣服務, 自助式洗衣",NT$586
悠逸行旅,"台北排名第 119 的超值住宿地點，共 1,200 家",https://www.tripadvisor.com.tw/Hotel_Review-g13808853-d9755670-Reviews-Uinn_Travel_Hostel-Zhongzheng_District_Taipei.html,25.045711517333984,121.51061248779297,NT$736,重慶南路三段38號,2.0,台北,中正區,"NT$534 - NT$2,012",4.5,1066,https://media-cdn.tripadvisor.com/media/photo-s/0a/9a/68/bf/caption.jpg,"禁菸客房, 空調設施, 平板電視","免費高速上網 (WiFi), 免費網際網路, 無線網路, 網際網路, 免費早餐, 禁菸飯店, 洗衣服務, 自助式洗衣",NT$554
天玥泉會館,"台北排名第 120 的超值住宿地點，共 1,200 家",https://www.tripadvisor.com.tw/Hotel_Review-g13806427-d3935003-Reviews-Beitou_Hot_Spring_Resort_Tian_Yue_Quan-Beitou_Taipei.html,25.042436599731445,121.5080795288086,"NT$3,474",北投區中山路3號,3.5,台北,北投,"NT$3,866 - NT$6,727",4.0,308,https://media-cdn.tripadvisor.com/media/photo-s/03/e8/3c/39/caption.jpg,"禁菸客房, 套房, 空調設施, 冰箱, 平板電視","免費停車, 免費高速上網 (WiFi), 浴缸, 免費早餐, 會議設施, 宴會廳, 禮賓服務, 乾洗服務, 免費網際網路, 無線網路, 公用無線網路, 網際網路, 餐廳, 自助式早餐, 會議室, 洗衣服務","NT$3,657"
寒舍艾麗酒店,"台北排名第 121 的超值住宿地點，共 1,200 家",https://www.tripadvisor.com.tw/Hotel_Review-g13808515-d5283499-Reviews-Humble_House_Taipei-Xinyi_District_Taipei.html,25.136125564575195,121.50593566894531,"NT$5,579",信義區松高路18號,4.0,台北,信義區,"NT$6,413 - NT$9,179",4.5,576,https://media-cdn.tripadvisor.com/media/photo-s/0e/c2/c6/07/exterior.jpg,"禁菸客房, 套房, 空調設施, 客房服務, 迷你吧, 平板電視","免費高速上網 (WiFi), 游泳池, 有健身房的健身中心, 酒吧/酒廊, 機場接送, 提供上網服務的商務中心, 會議設施, Spa, 免費網際網路, 無線網路, 網際網路, 屋頂游泳池, 室外游泳池, 餐廳, 自助式早餐, 宴會廳, 會議室, 禮賓服務, 禁菸飯店, 乾洗服務, 洗衣服務","NT$1,990"
阿樹國際旅店,"台北排名第 122 的超值住宿地點，共 1,200 家",https://www.tripadvisor.com.tw/Hotel_Review-g13806900-d12926686-Reviews-Artree_Hotel-Songshan_Taipei.html,25.038883209228516,121.56732940673828,"NT$3,693",八德路三段76號,4.0,台北,松山,"NT$4,244 - NT$7,324",4.5,118,https://media-cdn.tripadvisor.com/media/photo-s/10/ed/d8/c7/caption.jpg,"禁菸客房, 套房, 家庭房, 空調設施, 迷你吧, 冰箱","免費停車, 免費高速上網 (WiFi), 有健身房的健身中心, 免費早餐, 機場接送, 會議室, 禮賓服務, 禁菸飯店, 免費網際網路, 無線網路, 公用無線網路, 網際網路, 酒吧/酒廊, 餐廳, 提供早餐, 自助式早餐, 乾洗服務, 洗衣服務","NT$7,300"
Home Hotel 大安,"台北排名第 123 的超值住宿地點，共 1,200 家",https://www.tripadvisor.com.tw/Hotel_Review-g13811269-d7997174-Reviews-Home_Hotel_DaAn-Da_an_Taipei.html,25.0480899810791,121.55264282226562,"NT$3,419",大安區復興南路一段219-2號,3.5,台北,大安,"NT$3,741 - NT$6,853",4.5,353,https://media-cdn.tripadvisor.com/media/photo-s/16/ba/75/b0/home-hotel.jpg,"禁菸客房, 套房, 家庭房, 空調設施, 私人陽台, 冰箱, 平板電視","免費停車, 停車, 免費高速上網 (WiFi), 酒吧/酒廊, 禮賓服務, 禁菸飯店, 乾洗服務, 洗衣服務, 免費網際網路, 無線網路, 公用無線網路, 網際網路, 餐廳, 自助式早餐",
北投麗禧溫泉酒店,"台北排名第 124 的超值住宿地點，共 1,200 家",https://www.tripadvisor.com.tw/Hotel_Review-g13806427-d2095241-Reviews-Grand_View_Resort_Beitou-Beitou_Taipei.html,25.03898811340332,121.54386138916016,"NT$10,885",北投區幽雅路30號,5.0,台北,北投,"NT$11,065 - NT$19,961",4.5,871,https://media-cdn.tripadvisor.com/media/photo-s/0d/a5/0b/40/caption.jpg,"禁菸客房, 套房, 家庭房, 空調設施, 私人陽台, 客房服務, 迷你吧, 平板電視, 保險箱, 冰箱","免費停車, 免費高速上網 (WiFi), 游泳池, 有健身房的健身中心, 免費早餐, 免費接駁或計程車服務, 提供上網服務的商務中心, 會議設施, 停車, 免費網際網路, 無線網路, 公用無線網路, 網際網路, 浴缸, 桑拿, 成人游泳池, 室外游泳池, 溫水游泳池, 餐廳, 提供早餐, 自助式早餐, 巴士接駁服務, 宴會廳, 會議室, Spa, 禮賓服務, 禁菸飯店, 管家服務, 乾洗服務, 洗衣服務","NT$3,636"
西華飯店,"台北排名第 125 的超值住宿地點，共 1,200 家",https://www.tripadvisor.com.tw/Hotel_Review-g13806900-d302768-Reviews-The_Sherwood_Taipei-Songshan_Taipei.html,25.137746810913086,121.51493835449219,"NT$3,487",松山區民生東路三段111號,4.5,台北,松山,"NT$4,212 - NT$6,633",4.5,1163,https://media-cdn.tripadvisor.com/media/photo-s/09/45/bf/bc/executive-suite--v8741985.jpg,"禁菸客房, 套房, 家庭房, 空調設施, 客房服務, 迷你吧, 平板電視","免費停車, 免費高速上網 (WiFi), 游泳池, 有健身房的健身中心, 酒吧/酒廊, 機場接送, 提供上網服務的商務中心, 會議設施, 免費網際網路, 無線網路, 網際網路, 浴缸, 室內游泳池, 溫水游泳池, 餐廳, 自助式早餐, 宴會廳, 會議室, Spa, 禮賓服務, 禁菸飯店, 乾洗服務, 洗衣服務",
香格里拉台北遠東國際大飯店,"台北排名第 126 的超值住宿地點，共 1,200 家",https://www.tripadvisor.com.tw/Hotel_Review-g13811269-d302103-Reviews-Shangri_La_s_Far_Eastern_Plaza_Hotel_Taipei-Da_an_Taipei.html,25.058088302612305,121.54586029052734,"NT$9,000",敦化南路二段201號,5.0,台北,大安,"NT$7,513 - NT$11,442",4.5,2391,https://media-cdn.tripadvisor.com/media/photo-s/13/a5/ef/ff/caption.jpg,游泳池,,"NT$3,749"
敘美行旅,"台北排名第 127 的超值住宿地點，共 1,200 家",https://www.tripadvisor.com.tw/Hotel_Review-g13808853-d8634966-Reviews-Beauty_Hotels_Taipei_Hotel_B7_Journey-Zhongzheng_District_Taipei.html,25.0405216217041,121.56582641601562,"NT$7,900",重慶南路一段94號,3.0,台北,中正區,"NT$1,383 - NT$3,175",4.5,231,https://media-cdn.tripadvisor.com/media/photo-s/09/09/5a/a2/standard-twin-room.jpg,"禁菸客房, 套房, 空調設施, 迷你吧, 冰箱, 平板電視","免費高速上網 (WiFi), 免費網際網路, 無線網路, 餐廳, 提供早餐, 禁菸飯店, 乾洗服務, 洗衣服務, 公用無線網路, 網際網路","NT$9,000"
璞邸城市膠囊旅店,"台北排名第 128 的超值住宿地點，共 1,200 家",https://www.tripadvisor.com.tw/Hotel_Review-g13808853-d7912555-Reviews-Bouti_Capsule_Inn-Zhongzheng_District_Taipei.html,25.02655792236328,121.54936981201172,NT$919,重慶南路1段7號 中正區,2.5,台北,中正區,"NT$912 - NT$2,326",4.5,564,https://media-cdn.tripadvisor.com/media/photo-s/0c/cf/7d/3b/street--v13472247.jpg,"禁菸客房, 家庭房, 空調設施","免費高速上網 (WiFi), 免費網際網路, 無線網路, 公用無線網路, 免費早餐, 禁菸飯店, 洗衣服務, 自助式洗衣, 網際網路","NT$7,900"
君品酒店,"台北排名第 129 的超值住宿地點，共 1,200 家",https://www.tripadvisor.com.tw/Hotel_Review-g13806451-d1797213-Reviews-Palais_de_Chine_Hotel-Datong_Taipei.html,25.042753219604492,121.51314544677734,"NT$3,813",承德路一段3號 Palais De Chine Hotel,4.5,台北,大同,"NT$5,061 - NT$8,645",4.5,2552,https://media-cdn.tripadvisor.com/media/photo-s/0d/f8/36/38/2016-1226-16591500-largejpg.jpg,有健身房的健身中心,,
太平洋商旅,"台北排名第 130 的超值住宿地點，共 1,200 家",https://www.tripadvisor.com.tw/Hotel_Review-g13808515-d505594-Reviews-Pacific_Business_Hotel-Xinyi_District_Taipei.html,25.04640007019043,121.51336669921875,"NT$3,813",信義區光復南路495號11樓,3.5,台北,信義區,"NT$3,395 - NT$6,916",4.5,1048,https://media-cdn.tripadvisor.com/media/photo-s/12/98/7e/0f/101.jpg,免費高速上網 (WiFi),,
台北北門窩泊旅,"台北排名第 131 的超值住宿地點，共 1,200 家",https://www.tripadvisor.com.tw/Hotel_Review-g13806451-d10541961-Reviews-Beimen_Wow_Poshtel-Datong_Taipei.html,25.049333572387695,121.51717376708984,NT$701,大同區太原路92巷2-1號,2.0,台北,大同,"NT$472 - NT$1,540",4.5,155,https://media-cdn.tripadvisor.com/media/photo-s/0b/e1/a7/3b/getlstd-property-photo.jpg,"禁菸客房, 家庭房, 空調設施, 小廚房","免費高速上網 (WiFi), 免費網際網路, 無線網路, 免費早餐, 機場接送, 禁菸飯店, 洗衣服務, 自助式洗衣, 公用無線網路, 網際網路","NT$4,710"
天閣酒店 - 台北信義,"台北排名第 132 的超值住宿地點，共 1,200 家",https://www.tripadvisor.com.tw/Hotel_Review-g13808515-d662919-Reviews-THE_Tango_Taipei_XinYi-Xinyi_District_Taipei.html,25.032297134399414,121.55816650390625,"NT$2,790",信義區忠孝東路五段297號,3.5,台北,信義區,"NT$3,426 - NT$6,538",4.0,299,https://media-cdn.tripadvisor.com/media/photo-s/0d/43/f8/55/tango-suite--v14034250.jpg,"禁菸客房, 套房, 空調設施, 客房服務, 迷你吧, 平板電視","免費高速上網 (WiFi), 有健身房的健身中心, 浴缸, 免費早餐, 提供上網服務的商務中心, 會議室, Spa, 禮賓服務, 免費網際網路, 無線網路, 公用無線網路, 網際網路, 自助式早餐, 禁菸飯店, 乾洗服務, 洗衣服務","NT$3,325"
日勝生加賀屋北投溫泉度假飯店,"台北排名第 133 的超值住宿地點，共 1,200 家",https://www.tripadvisor.com.tw/Hotel_Review-g13806427-d1905676-Reviews-Radium_Kagaya_International_Hotel-Beitou_Taipei.html,25.052236557006836,121.51549530029297,"NT$10,087",北投區光明路236號,4.0,台北,北投,"NT$8,487 - NT$24,645",4.0,527,https://media-cdn.tripadvisor.com/media/photo-s/05/0c/06/49/caption.jpg,"禁菸客房, 套房, 家庭房, 空調設施, 客房服務, 冰箱, 平板電視","免費停車, 免費高速上網 (WiFi), 浴缸, 免費早餐, 巴士接駁服務, 會議設施, 宴會廳, Spa, 免費網際網路, 無線網路, 網際網路, 酒吧/酒廊, 餐廳, 自助式早餐, 會議室, 禮賓服務, 禁菸飯店, 管家服務, 乾洗服務, 洗衣服務",
丹迪旅店 – 天母店,"台北排名第 134 的超值住宿地點，共 1,200 家",https://www.tripadvisor.com.tw/Hotel_Review-g13806879-d2035389-Reviews-Dandy_Hotel_Tianmu_Branch-Shilin_Taipei.html,25.04097557067871,121.57291412353516,"NT$1,782",士林區中山北路六段728巷2號,3.5,台北,士林,"NT$2,106 - NT$4,464",5.0,946,https://media-cdn.tripadvisor.com/media/photo-s/0b/09/c1/e1/dandy-tianmu-at-night.jpg,"禁菸客房, 家庭房, 空調設施, 冰箱, 平板電視","免費高速上網 (WiFi), 免費網際網路, 免費早餐, 機場接送, 禮賓服務, 禁菸飯店, 乾洗服務, 洗衣服務, 無線網路, 公用無線網路, 網際網路, 提供早餐, 自助式早餐, 自助式洗衣","NT$4,026"
大地清旅．旅店,"台北排名第 135 的超值住宿地點，共 1,200 家",https://www.tripadvisor.com.tw/Hotel_Review-g13808671-d6681999-Reviews-Horizon_Inn-Zhongshan_District_Taipei.html,25.136335372924805,121.50670623779297,"NT$1,541",長安東路二段246號4樓,3.0,台北,中山區,"NT$1,635 - NT$3,584",4.5,163,https://media-cdn.tripadvisor.com/media/photo-s/09/e1/0b/4a/caption.jpg,"禁菸客房, 套房, 家庭房, 空調設施, 平板電視","免費高速上網 (WiFi), 免費網際網路, 無線網路, 免費早餐, 餐廳, 禁菸飯店, 洗衣服務, 自助式洗衣, 網際網路, 自助式早餐","NT$10,087"
神旺商務酒店,"台北排名第 136 的超值住宿地點，共 1,200 家",https://www.tripadvisor.com.tw/Hotel_Review-g13808671-d1022815-Reviews-San_Want_Residences-Zhongshan_District_Taipei.html,25.114877700805664,121.52811431884766,"NT$3,983",中山區南京東路一段128號,4.5,台北,中山區,"NT$4,527 - NT$20,275",4.5,818,https://media-cdn.tripadvisor.com/media/photo-s/12/59/0b/03/lounge.jpg,"禁菸客房, 套房, 空調設施, 客房服務, 迷你吧, 平板電視","免費停車, 免費高速上網 (WiFi), 有健身房的健身中心, 浴缸, 免費早餐, 提供上網服務的商務中心, 會議設施, 禮賓服務, 免費網際網路, 無線網路, 網際網路, 酒吧/酒廊, 餐廳, 自助式早餐, 宴會廳, 會議室, 禁菸飯店, 乾洗服務, 洗衣服務",
太空艙-信義館,"台北排名第 137 的超值住宿地點，共 1,200 家",https://www.tripadvisor.com.tw/Hotel_Review-g13808515-d11918208-Reviews-Space_Inn_Xinyi-Xinyi_District_Taipei.html,25.047910690307617,121.543212890625,NT$872,信義區光復南路549號,2.0,台北,信義區,"NT$660 - NT$1,446",4.5,59,https://media-cdn.tripadvisor.com/media/photo-s/0e/1f/25/03/caption.jpg,免費高速上網 (WiFi),,"NT$1,801"
北門臥客青年旅舍,"台北排名第 138 的超值住宿地點，共 1,200 家",https://www.tripadvisor.com.tw/Hotel_Review-g13806451-d7784672-Reviews-We_Come_Hostel-Datong_Taipei.html,25.052371978759766,121.52711486816406,"NT$1,062",大同區甘谷街26號2樓,2.0,台北,大同,"NT$503 - NT$2,483",4.5,317,https://media-cdn.tripadvisor.com/media/photo-s/11/03/e2/df/common-area.jpg,"禁菸客房, 家庭房, 空調設施, 小廚房","免費高速上網 (WiFi), 免費網際網路, 無線網路, 免費早餐, 自助式早餐, 禮賓服務, 禁菸飯店, 自助式洗衣, 公用無線網路, 網際網路","NT$3,983"
西門窩,"台北排名第 139 的超值住宿地點，共 1,200 家",https://www.tripadvisor.com.tw/Hotel_Review-g13806951-d7268882-Reviews-Ximen_WOW_Hostel-Wanhua_Taipei.html,25.031599044799805,121.55757141113281,"NT$1,558",漢中街42號8樓,2.0,台北,萬華,"NT$440 - NT$1,226",4.5,181,https://media-cdn.tripadvisor.com/media/photo-s/07/04/3e/57/caption.jpg,"禁菸客房, 空調設施","免費高速上網 (WiFi), 免費網際網路, 無線網路, 網際網路, 免費早餐, 自助式洗衣",
台北商旅慶城館,"台北排名第 140 的超值住宿地點，共 1,200 家",https://www.tripadvisor.com.tw/Hotel_Review-g13806900-d302966-Reviews-Les_Suites_Taipei_Ching_cheng-Songshan_Taipei.html,25.052734375,121.51093292236328,NT$714,松山區慶城街12號 庆城街12号,4.5,台北,松山,"NT$4,778 - NT$8,016",4.5,958,https://media-cdn.tripadvisor.com/media/photo-s/18/ef/c3/4e/lobby.jpg,"禁菸客房, 套房, 家庭房, 空調設施, 保險箱, 迷你吧, 冰箱, 平板電視","免費高速上網 (WiFi), 有健身房的健身中心, 免費早餐, 機場接送, 提供上網服務的商務中心, 會議設施, 禮賓服務, 禁菸飯店, 免費網際網路, 無線網路, 公用無線網路, 網際網路, 酒吧/酒廊, 自助式早餐, 會議室, 乾洗服務, 洗衣服務",
紅米青年旅館,"台北排名第 141 的超值住宿地點，共 1,200 家",https://www.tripadvisor.com.tw/Hotel_Review-g13806451-d4191001-Reviews-Homey_Hostel_Taipei_Main_Station-Datong_Taipei.html,25.044187545776367,121.50733184814453,"NT$1,207",長安西路180號 7樓,2.0,台北,大同,"NT$692 - NT$1,760",4.5,308,https://media-cdn.tripadvisor.com/media/photo-s/0f/83/6f/7d/caption.jpg,免費高速上網 (WiFi),,
寒舍艾美酒店,"台北排名第 142 的超值住宿地點，共 1,200 家",https://www.tripadvisor.com.tw/Hotel_Review-g13808515-d1877829-Reviews-Le_Meridien_Taipei-Xinyi_District_Taipei.html,25.05278778076172,121.54509735107422,"NT$1,207",信義區松仁路38號,4.5,台北,信義區,"NT$8,896 - NT$13,265",4.5,717,https://media-cdn.tripadvisor.com/media/photo-s/17/8c/fa/b7/guest-room.jpg,有健身房的健身中心,,
天閣酒店 - 台北南西,"台北排名第 143 的超值住宿地點，共 1,200 家",https://www.tripadvisor.com.tw/Hotel_Review-g13808671-d659162-Reviews-THE_Tango_Taipei_NanShi-Zhongshan_District_Taipei.html,25.051040649414062,121.51595306396484,"NT$2,872",中山區南京西路3號,3.5,台北,中山區,"NT$3,426 - NT$5,973",4.5,462,https://media-cdn.tripadvisor.com/media/photo-s/0d/c7/c1/fa/caption.jpg,免費高速上網 (WiFi),,
Solo Singer 旅館,"台北排名第 144 的超值住宿地點，共 1,200 家",https://www.tripadvisor.com.tw/Hotel_Review-g13806427-d3454140-Reviews-Solo_Singer_Hotel-Beitou_Taipei.html,25.038013458251953,121.56794738769531,"NT$1,919",北投區溫泉路21巷7號,3.0,台北,北投,"NT$2,263 - NT$4,307",5.0,188,https://media-cdn.tripadvisor.com/media/photo-s/0b/40/1b/1b/solo-singer-life--v11414534.jpg,"禁菸客房, 套房, 家庭房, 空調設施","免費高速上網 (WiFi), 免費網際網路, 無線網路, 公用無線網路, 網際網路, 免費早餐, 禮賓服務, 禁菸飯店",
台北中山雅樂軒酒店,"台北排名第 145 的超值住宿地點，共 1,200 家",https://www.tripadvisor.com.tw/Hotel_Review-g13808671-d8859127-Reviews-Aloft_Taipei_Zhongshan-Zhongshan_District_Taipei.html,25.052701950073242,121.52165222167969,"NT$4,050",中山區雙城街1號,4.0,台北,中山區,"NT$4,087 - NT$7,136",4.5,449,https://media-cdn.tripadvisor.com/media/photo-s/0d/c5/00/76/aloft-taipei-zhongshan.jpg,客房服務,,"NT$3,218"
麗都飯店,"台北排名第 146 的超值住宿地點，共 1,200 家",https://www.tripadvisor.com.tw/Hotel_Review-g13811269-d582177-Reviews-Rido_Hotel_Taipei-Da_an_Taipei.html,25.13414192199707,121.5028305053711,"NT$4,050",信義路三段11號,3.5,台北,大安,"NT$2,420 - NT$4,778",4.0,361,https://media-cdn.tripadvisor.com/media/photo-s/09/4b/ff/8f/euro-brilliant-view-suite--v91942.jpg,免費停車,,
台北國泰萬怡酒店,"台北排名第 147 的超值住宿地點，共 1,200 家",https://www.tripadvisor.com.tw/Hotel_Review-g13808671-d15632350-Reviews-Courtyard_by_Marriott_Taipei_Downtown-Zhongshan_District_Taipei.html,25.062925338745117,121.52455139160156,"NT$5,200",民生東路3段6號,3.5,台北,中山區,"NT$5,438 - NT$7,544",4.5,144,https://media-cdn.tripadvisor.com/media/photo-s/18/00/2a/36/exterior.jpg,"禁菸客房, 套房, 家庭房, 空調設施, 客房服務, 冰箱","免費停車, 免費高速上網 (WiFi), 有健身房的健身中心, 酒吧/酒廊, 會議設施, 宴會廳, 禮賓服務, 乾洗服務, 免費網際網路, 無線網路, 公用無線網路, 網際網路, 餐廳, 提供早餐, 會議室, 洗衣服務","NT$4,050"
和逸飯店‧台北民生館,"台北排名第 148 的超值住宿地點，共 1,200 家",https://www.tripadvisor.com.tw/Hotel_Review-g13808671-d4584261-Reviews-HOTEL_COZZI_Minsheng_Taipei-Zhongshan_District_Taipei.html,25.033859252929688,121.53376007080078,"NT$3,332",中山區民生東路二段178號,4.0,台北,中山區,"NT$3,835 - NT$5,690",4.5,358,https://media-cdn.tripadvisor.com/media/photo-s/15/dd/f5/a9/caption.jpg,"禁菸客房, 套房, 家庭房, 空調設施, 客房服務, 迷你吧, 冰箱, 平板電視","免費停車, 免費高速上網 (WiFi), 有健身房的健身中心, 免費早餐, 提供上網服務的商務中心, 會議設施, 禮賓服務, 禁菸飯店, 免費網際網路, 無線網路, 公用無線網路, 網際網路, 酒吧/酒廊, 餐廳, 提供早餐, 自助式早餐, 會議室, 乾洗服務","NT$2,345"
台北CT屋,"台北排名第 149 的超值住宿地點，共 1,200 家",https://www.tripadvisor.com.tw/Hotel_Review-g13806451-d6028427-Reviews-Taipei_City_Home-Datong_Taipei.html,25.05763816833496,121.54100799560547,"NT$1,000",大同區長安西路172巷5弄7號,,台北,大同,"NT$503 - NT$1,697",5.0,216,https://media-cdn.tripadvisor.com/media/photo-s/0f/1e/7e/dd/ct.jpg,"禁菸客房, 空調設施, 小廚房","免費高速上網 (WiFi), 免費網際網路, 無線網路, 網際網路, 免費早餐, 禁菸飯店",
三二行館,"台北排名第 150 的超值住宿地點，共 1,200 家",https://www.tripadvisor.com.tw/Hotel_Review-g13806427-d612675-Reviews-Villa_32-Beitou_Taipei.html,25.057907104492188,121.53643798828125,"NT$16,800",北投區中山路32號,4.5,台北,北投,"NT$17,321 - NT$27,820",4.5,203,https://media-cdn.tripadvisor.com/media/photo-s/0e/e0/d1/48/the-lounge--v15331538.jpg,"禁菸客房, 套房, 空調設施, 客房服務, 冰箱","免費停車, 免費高速上網 (WiFi), 浴缸, 免費早餐, 提供上網服務的商務中心, 會議室, Spa, 禮賓服務, 停車, 免費網際網路, 無線網路, 網際網路, 餐廳, 禁菸飯店, 管家服務, 乾洗服務, 洗衣服務","NT$3,570"
Home Hotel,"台北排名第 151 的超值住宿地點，共 1,200 家",https://www.tripadvisor.com.tw/Hotel_Review-g13808515-d2195275-Reviews-Home_Hotel_Xinyi_Taipei-Xinyi_District_Taipei.html,25.035036087036133,121.56770324707031,"NT$4,996",松仁路90號,4.5,台北,信義區,"NT$5,312 - NT$7,481",4.0,436,https://media-cdn.tripadvisor.com/media/photo-s/09/9b/d1/cf/home-hotel.jpg,"禁菸客房, 套房, 空調設施, 客房服務, 迷你吧, 平板電視","免費高速上網 (WiFi), 有健身房的健身中心, 酒吧/酒廊, 夜店/ DJ, 機場接送, 提供上網服務的商務中心, 會議室, 禮賓服務, 免費網際網路, 無線網路, 公用無線網路, 網際網路, 餐廳, 自助式早餐, 禁菸飯店, 乾洗服務, 洗衣服務",
大地酒店,"台北排名第 152 的超值住宿地點，共 1,200 家",https://www.tripadvisor.com.tw/Hotel_Review-g13806427-d6440283-Reviews-The_Gaia_Hotel_Taipei-Beitou_Taipei.html,25.134714126586914,121.50713348388672,"NT$6,978",北投區奇岩路1號,4.5,台北,北投,"NT$7,261 - NT$13,014",4.5,513,https://media-cdn.tripadvisor.com/media/photo-s/12/41/97/38/caption.jpg,"禁菸客房, 套房, 家庭房, 空調設施, 客房服務, 迷你吧, 冰箱, 平板電視","免費停車, 免費高速上網 (WiFi), 游泳池, 有健身房的健身中心, 免費早餐, 巴士接駁服務, 提供上網服務的商務中心, 會議設施, 停車, 免費網際網路, 無線網路, 公用無線網路, 網際網路, 浴缸, 室內游泳池, 餐廳, 提供早餐, 自助式早餐, 宴會廳, 會議室, Spa, 禮賓服務, 禁菸飯店, 乾洗服務, 洗衣服務",
台北怡亨酒店,"台北排名第 153 的超值住宿地點，共 1,200 家",https://www.tripadvisor.com.tw/Hotel_Review-g13811269-d1395608-Reviews-Hotel_Eclat_Taipei-Da_an_Taipei.html,25.0335693359375,121.5482406616211,"NT$3,027",大安區敦化南路一段370號,4.5,台北,大安,"NT$4,904 - NT$8,173",4.5,1185,https://media-cdn.tripadvisor.com/media/photo-s/17/2c/5a/6b/caption.jpg,免費高速上網 (WiFi),,
二十輪旅店 - 大安店,"台北排名第 154 的超值住宿地點，共 1,200 家",https://www.tripadvisor.com.tw/Hotel_Review-g13811269-d8555269-Reviews-Swiio_Hotel_Daan-Da_an_Taipei.html,25.036069869995117,121.54602813720703,"NT$3,027",大安區大安路一段185號,3.5,台北,大安,"NT$3,709 - NT$7,890",5.0,536,https://media-cdn.tripadvisor.com/media/photo-s/09/e0/da/b8/caption.jpg,餐廳,,
HOTEL QUOTE Taipei,"台北排名第 155 的超值住宿地點，共 1,200 家",https://www.tripadvisor.com.tw/Hotel_Review-g13806900-d1569789-Reviews-HOTEL_QUOTE_Taipei-Songshan_Taipei.html,25.051984786987305,121.54755401611328,"NT$3,172",松山區南京東路三段333號,4.0,台北,松山,"NT$3,395 - NT$8,204",4.5,843,https://media-cdn.tripadvisor.com/media/photo-s/09/2d/2f/15/u-room--v9186830.jpg,"禁菸客房, 套房, 家庭房, 空調設施, 客房服務, 迷你吧, 平板電視","停車, 免費高速上網 (WiFi), 酒吧/酒廊, 機場接送, 提供上網服務的商務中心, 會議設施, 禮賓服務, 禁菸飯店, 免費網際網路, 無線網路, 公用無線網路, 網際網路, 餐廳, 自助式早餐, 會議室, 乾洗服務, 洗衣服務",
誠品行旅,"台北排名第 156 的超值住宿地點，共 1,200 家",https://www.tripadvisor.com.tw/Hotel_Review-g13808515-d5207493-Reviews-Eslite_Hotel-Xinyi_District_Taipei.html,25.045082092285156,121.56187438964844,"NT$1,045",信義區菸廠路98號,4.5,台北,信義區,"NT$7,450 - NT$13,203",4.5,417,https://media-cdn.tripadvisor.com/media/photo-s/09/d2/cc/aa/bathroom.jpg,客房服務,,
夾腳拖的家-台北車站,"台北排名第 157 的超值住宿地點，共 1,200 家",https://www.tripadvisor.com.tw/Hotel_Review-g13806451-d2182310-Reviews-Flip_Flop_Hostel_Main_Station-Datong_Taipei.html,25.049816131591797,121.51731872558594,"NT$1,084",大同區華陰街103號,2.0,台北,大同,"NT$472 - NT$2,546",4.5,207,https://media-cdn.tripadvisor.com/media/photo-s/07/a4/be/20/caption.jpg,免費高速上網 (WiFi),,
建山大旅社,"台北排名第 158 的超值住宿地點，共 1,200 家",https://www.tripadvisor.com.tw/Hotel_Review-g13806451-d9570810-Reviews-Jian_Shan_Hotel-Datong_Taipei.html,25.058197021484375,121.51225280761719,"NT$1,084",大同區歸綏街182號,3.0,台北,大同,"NT$1,289 - NT$2,578",4.5,108,https://media-cdn.tripadvisor.com/media/photo-s/0a/29/de/04/caption.jpg,"禁菸客房, 空調設施, 冰箱, 平板電視","免費高速上網 (WiFi), 免費網際網路, 無線網路, 網際網路, 禁菸飯店",
台北士林萬麗酒店,"台北排名第 159 的超值住宿地點，共 1,200 家",https://www.tripadvisor.com.tw/Hotel_Review-g13806879-d15019649-Reviews-Renaissance_Taipei_Shihlin_Hotel-Shilin_Taipei.html,25.093050003051758,121.5291976928711,"NT$1,051",中山北路五段470巷8號,4.0,台北,士林,"NT$6,256 - NT$8,110",4.5,140,https://media-cdn.tripadvisor.com/media/photo-s/18/00/2d/df/exterior.jpg,"禁菸客房, 套房, 空調設施, 房務, 客房服務","免費停車, 免費高速上網 (WiFi), 游泳池, 有健身房的健身中心, 酒吧/酒廊, 提供上網服務的商務中心, 禁菸飯店, 乾洗服務, 停車, 免費網際網路, 網際網路, 屋頂游泳池, 餐廳, 洗衣服務",
杜萊根國際青年旅舍,"台北排名第 160 的超值住宿地點，共 1,200 家",https://www.tripadvisor.com.tw/Hotel_Review-g13806900-d7399045-Reviews-Sleepy_Dragon_Hostel-Songshan_Taipei.html,25.05147933959961,121.56963348388672,"NT$1,051",松山區南京東路五段399號7樓,2.0,台北,松山,"NT$503 - NT$1,226",5.0,141,https://media-cdn.tripadvisor.com/media/photo-s/0b/17/91/03/caption.jpg,酒吧/Lounge吧,,
途中台北國際青年旅舍,"台北排名第 161 的超值住宿地點，共 1,200 家",https://www.tripadvisor.com.tw/Hotel_Review-g13806427-d3908090-Reviews-On_My_Way_Taipei_Hostel-Beitou_Taipei.html,25.13299560546875,121.50060272216797,"NT$1,082",北投區光明路82號,2.0,台北,北投,"NT$566 - NT$1,603",4.5,200,https://media-cdn.tripadvisor.com/media/photo-s/03/ab/ae/f5/caption.jpg,"禁菸客房, 空調設施, 小廚房","免費高速上網 (WiFi), 免費網際網路, 無線網路, 網際網路, 禁菸飯店, 自助式洗衣",
賦樂旅居,"台北排名第 162 的超值住宿地點，共 1,200 家",https://www.tripadvisor.com.tw/Hotel_Review-g13811269-d8398891-Reviews-Hotel_Proverbs_Taipei-Da_an_Taipei.html,25.042949676513672,121.54611206054688,"NT$7,051",大安區大安路一段56號,4.0,台北,大安,"NT$6,947 - NT$9,745",4.5,512,https://media-cdn.tripadvisor.com/media/photo-s/09/66/c4/f5/photo2jpg.jpg,"禁菸客房, 套房, 空調設施, 私人陽台, 客房服務, 迷你吧, 冰箱, 平板電視","免費停車, 免費高速上網 (WiFi), 游泳池, 屋頂游泳池, 酒吧/酒廊, 機場接送, 提供上網服務的商務中心, 會議室, 免費網際網路, 無線網路, 公用無線網路, 網際網路, 餐廳, 自助式早餐, 屋頂露台, 禮賓服務, 禁菸飯店, 乾洗服務, 洗衣服務","NT$7,020"
台北凱撒大飯店,"台北排名第 163 的超值住宿地點，共 1,200 家",https://www.tripadvisor.com.tw/Hotel_Review-g13808853-d306433-Reviews-Caesar_Park_Taipei-Zhongzheng_District_Taipei.html,25.046287536621094,121.51676177978516,"NT$2,744",中正區忠孝西路一段38號,4.0,台北,中正區,"NT$3,206 - NT$5,061",4.0,1826,https://media-cdn.tripadvisor.com/media/photo-s/18/b3/22/37/caption.jpg,客房服務,,"NT$3,030"
台北福華大飯店,"台北排名第 164 的超值住宿地點，共 1,200 家",https://www.tripadvisor.com.tw/Hotel_Review-g13811269-d301558-Reviews-Howard_Plaza_Hotel_Taipei-Da_an_Taipei.html,25.03759765625,121.54306030273438,"NT$2,604",大安區仁愛路三段160號,4.5,台北,大安,"NT$3,364 - NT$6,727",4.0,1194,https://media-cdn.tripadvisor.com/media/photo-s/14/d6/e5/d2/exterior.jpg,"禁菸客房, 套房, 家庭房, 空調設施, 客房服務, 迷你吧, 平板電視","免費停車, 免費高速上網 (WiFi), 游泳池, 有健身房的健身中心, 酒吧/酒廊, 機場接送, 提供上網服務的商務中心, 會議設施, 免費網際網路, 無線網路, 網際網路, 室外游泳池, 餐廳, 自助式早餐, 宴會廳, 會議室, Spa, 禮賓服務, 禁菸飯店, 乾洗服務, 洗衣服務","NT$3,600"
台北馥敦-復南館,"台北排名第 165 的超值住宿地點，共 1,200 家",https://www.tripadvisor.com.tw/Hotel_Review-g13811269-d503406-Reviews-Taipei_Fullerton_Hotel_South-Da_an_Taipei.html,25.03141212463379,121.54379272460938,"NT$3,375",復興南路二段41號,4.0,台北,大安,"NT$3,145 - NT$5,595",4.0,362,https://media-cdn.tripadvisor.com/media/photo-s/0e/1e/12/d6/fullerton-room-with-shower--v1532.jpg,"禁菸客房, 套房, 家庭房, 空調設施, 客房服務, 迷你吧, 冰箱, 平板電視","免費高速上網 (WiFi), 有健身房的健身中心, 免費早餐, 提供上網服務的商務中心, 會議設施, Spa, 禮賓服務, 禁菸飯店, 免費網際網路, 無線網路, 公用無線網路, 網際網路, 餐廳, 提供早餐, 自助式早餐, 會議室, 乾洗服務, 洗衣服務","NT$3,375"
富驛時尚酒店 - 台北南京東路館,"台北排名第 166 的超值住宿地點，共 1,200 家",https://www.tripadvisor.com.tw/Hotel_Review-g13808671-d2313699-Reviews-FX_Hotel_Taipei_Nanjing_East_Road-Zhongshan_District_Taipei.html,25.05217170715332,121.5408935546875,"NT$1,541",中山區南京東路三段131號,4.0,台北,中山區,"NT$1,855 - NT$3,772",4.0,574,https://media-cdn.tripadvisor.com/media/photo-s/04/21/76/b5/fx-hotel-taipei-nanjing.jpg,"禁菸客房, 套房, 家庭房, 空調設施, 客房服務, 保險箱, 平板電視","免費停車, 免費高速上網 (WiFi), 有健身房的健身中心, 餐廳, 提供上網服務的商務中心, 會議設施, 禮賓服務, 禁菸飯店, 停車, 免費網際網路, 無線網路, 網際網路, 自助式早餐, 會議室, 乾洗服務, 洗衣服務","NT$1,541"
神旺大飯店,"台北排名第 167 的超值住宿地點，共 1,200 家",https://www.tripadvisor.com.tw/Hotel_Review-g13811269-d477942-Reviews-San_Want-Da_an_Taipei.html,25.041414260864258,121.55094909667969,"NT$2,684",忠孝東路四段172號,3.5,台北,大安,"NT$2,861 - NT$4,149",4.0,669,https://media-cdn.tripadvisor.com/media/photo-s/09/1c/a7/2d/executive-single-room--v8747458.jpg,"禁菸客房, 套房, 家庭房, 空調設施, 客房服務, 平板電視","免費高速上網 (WiFi), 有健身房的健身中心, 酒吧/酒廊, 提供上網服務的商務中心, 會議設施, 禮賓服務, 禁菸飯店, 乾洗服務, 免費網際網路, 無線網路, 網際網路, 餐廳, 自助式早餐, 宴會廳, 會議室, 洗衣服務",
柯達大飯店台北二店,"台北排名第 168 的超值住宿地點，共 1,200 家",https://www.tripadvisor.com.tw/Hotel_Review-g13808671-d1175000-Reviews-K_Hotel_Taipei_II-Zhongshan_District_Taipei.html,25.061689376831055,121.52295684814453,"NT$1,976",中山區中山北路二段139號,3.5,台北,中山區,"NT$2,578 - NT$4,244",4.0,168,https://media-cdn.tripadvisor.com/media/photo-s/13/cf/dd/e6/caption.jpg,"禁菸客房, 套房, 空調設施, 迷你吧, 冰箱","免費高速上網 (WiFi), 免費早餐, 保姆服務, 兒童活動 (適合兒童/家庭), 機場接送, 禁菸飯店, 乾洗服務, 洗衣服務, 免費網際網路, 無線網路, 公用無線網路, 網際網路, 餐廳, 自助式早餐",
台北城大飯店,"台北排名第 169 的超值住宿地點，共 1,200 家",https://www.tripadvisor.com.tw/Hotel_Review-g13806451-d8092835-Reviews-Taipei_City_Hotel-Datong_Taipei.html,25.059585571289062,121.51355743408203,"NT$1,810",大同區重慶北路二段172號,3.5,台北,大同,"NT$2,263 - NT$4,621",4.0,146,https://media-cdn.tripadvisor.com/media/photo-s/11/82/9e/32/junior-suite-with-single-bed--v17.jpg,餐廳,,
星辰大飯店,"台北排名第 170 的超值住宿地點，共 1,200 家",https://www.tripadvisor.com.tw/Hotel_Review-g13808853-d1542362-Reviews-Citizen_Hotel-Zhongzheng_District_Taipei.html,25.036489486694336,121.52769470214844,"NT$1,810",中正區金山南路一段80號,3.0,台北,中正區,"NT$1,918 - NT$3,332",4.0,106,https://media-cdn.tripadvisor.com/media/photo-s/10/3a/9c/a9/caption.jpg,"禁菸客房, 空調設施, 冰箱, 平板電視","免費停車, 免費高速上網 (WiFi), 免費網際網路, 無線網路, 免費早餐, 自助式早餐, 禁菸飯店, 洗衣服務, 公用無線網路, 網際網路",
南陽街壹號旅店,"台北排名第 171 的超值住宿地點，共 1,200 家",https://www.tripadvisor.com.tw/Hotel_Review-g13808853-d10832293-Reviews-NYS_Loft_Hotel-Zhongzheng_District_Taipei.html,25.045799255371094,121.51606750488281,"NT$4,136",南陽街1號3F,3.0,台北,中正區,"NT$1,132 - NT$2,546",4.0,104,https://media-cdn.tripadvisor.com/media/photo-s/0c/ea/83/1f/getlstd-property-photo.jpg,免費高速上網 (WiFi),,
國賓大飯店,"台北排名第 172 的超值住宿地點，共 1,200 家",https://www.tripadvisor.com.tw/Hotel_Review-g13808671-d306432-Reviews-Ambassador_Hotel_Taipei-Zhongshan_District_Taipei.html,25.056814193725586,121.52279663085938,"NT$3,790",中山北路二段63號,4.5,台北,中山區,"NT$4,181 - NT$7,922",4.0,873,https://media-cdn.tripadvisor.com/media/photo-s/15/14/b0/48/pool-side-room-at-the.jpg,游泳池,,"NT$4,329"
洛碁大飯店驛,"台北排名第 173 的超值住宿地點，共 1,200 家",https://www.tripadvisor.com.tw/Hotel_Review-g13808853-d7143096-Reviews-Green_World_Station-Zhongzheng_District_Taipei.html,25.045886993408203,121.5132064819336,"NT$1,843",重慶南路一段21號,3.5,台北,中正區,"NT$2,861 - NT$5,753",4.0,176,https://media-cdn.tripadvisor.com/media/photo-s/0c/6e/ba/8f/caption.jpg,餐廳,,
京站國際酒店式公寓,"台北排名第 174 的超值住宿地點，共 1,200 家",https://www.tripadvisor.com.tw/Hotel_Review-g13806451-d2105726-Reviews-ITaipei_Service_Apartment-Datong_Taipei.html,25.048858642578125,121.5185775756836,"NT$1,843",市民大道一段209號 1樓,3.5,台北,大同,"NT$2,326 - NT$5,155",4.0,317,https://media-cdn.tripadvisor.com/media/photo-s/0e/1d/f0/09/deluxe-double-purple--v15328024.jpg,"禁菸客房, 套房, 空調設施, 私人陽台, 小廚房, 冰箱, 平板電視","免費高速上網 (WiFi), 免費網際網路, 無線網路, 網際網路, 禮賓服務, 禁菸飯店, 洗衣服務, 自助式洗衣",
康華飯店,"台北排名第 175 的超值住宿地點，共 1,200 家",https://www.tripadvisor.com.tw/Hotel_Review-g13808671-d306443-Reviews-Golden_China_Hotel-Zhongshan_District_Taipei.html,25.060226440429688,121.53300476074219,"NT$2,367",松江路306號,4.0,台北,中山區,"NT$2,546 - NT$4,558",4.0,351,https://media-cdn.tripadvisor.com/media/photo-s/0c/fc/1c/47/twin-deluxe--v14032179.jpg,"禁菸客房, 套房, 家庭房, 空調設施, 客房服務, 冰箱, 平板電視","免費停車, 免費高速上網 (WiFi), 浴缸, 免費早餐, 提供上網服務的商務中心, 會議室, 禮賓服務, 禁菸飯店, 免費網際網路, 無線網路, 公用無線網路, 網際網路, 酒吧/酒廊, 餐廳, 自助式早餐, 乾洗服務, 洗衣服務","NT$2,424"
洛碁大飯店建北館,"台北排名第 176 的超值住宿地點，共 1,200 家",https://www.tripadvisor.com.tw/Hotel_Review-g13808671-d3605134-Reviews-Green_World_Hotel_Jian_Pei_Suites-Zhongshan_District_Taipei.html,25.05097770690918,121.53656768798828,"NT$2,297",建國北路一段140號,3.5,台北,中山區,"NT$2,012 - NT$4,810",4.0,197,https://media-cdn.tripadvisor.com/media/photo-s/0a/1e/3a/7b/street--v10499504.jpg,"禁菸客房, 套房, 空調設施, 迷你吧, 冰箱","停車, 免費高速上網 (WiFi), 免費網際網路, 免費早餐, 保姆服務, 禁菸飯店, 乾洗服務, 洗衣服務, 無線網路, 網際網路, 餐廳, 自助式早餐","NT$2,297"
福泰桔子商務旅館 - 林森店,"台北排名第 177 的超值住宿地點，共 1,200 家",https://www.tripadvisor.com.tw/Hotel_Review-g13808671-d1673293-Reviews-Orange_Hotel_Linsen_Taipei-Zhongshan_District_Taipei.html,25.05130386352539,121.52520751953125,"NT$1,545",中山區林森北路139號,3.0,台北,中山區,"NT$1,760 - NT$2,766",4.0,223,https://media-cdn.tripadvisor.com/media/photo-s/06/a5/28/e6/caption.jpg,"禁菸客房, 空調設施, 保險箱, 平板電視","免費高速上網 (WiFi), 免費網際網路, 無線網路, 網際網路, 自助式早餐, 禁菸飯店, 洗衣服務","NT$1,733"
天閣酒店 - 台北林森,"台北排名第 178 的超值住宿地點，共 1,200 家",https://www.tripadvisor.com.tw/Hotel_Review-g13808671-d729767-Reviews-Tango_Hotel_Taipei_Lin_Sen-Zhongshan_District_Taipei.html,25.050090789794922,121.52439880371094,"NT$2,735",中山區中山北路一段83巷15號,3.5,台北,中山區,"NT$3,238 - NT$4,998",4.0,165,https://media-cdn.tripadvisor.com/media/photo-s/0f/4c/95/ba/premium-suite--v16495425.jpg,"禁菸客房, 空調設施, 平板電視","免費停車, 免費高速上網 (WiFi), 有健身房的健身中心, 浴缸, 自助式早餐, 提供上網服務的商務中心, 會議室, 禁菸飯店, 免費網際網路, 無線網路, 網際網路, 乾洗服務, 洗衣服務",
昰美精品飯店,"台北排名第 179 的超值住宿地點，共 1,200 家",https://www.tripadvisor.com.tw/Hotel_Review-g13806879-d1760084-Reviews-Beauty_Hotels_Taipei_Beautique-Shilin_Taipei.html,25.12042236328125,121.52951049804688,"NT$1,549",士林區天玉街38巷14號,3.5,台北,士林,"NT$1,792 - NT$4,024",4.5,128,https://media-cdn.tripadvisor.com/media/photo-s/10/0b/1d/e5/elite-room--v16931088.jpg,"禁菸客房, 家庭房, 空調設施, 冰箱","免費停車, 免費高速上網 (WiFi), 有健身房的健身中心, 餐廳, 機場接送, 禮賓服務, 禁菸飯店, 乾洗服務, 免費網際網路, 無線網路, 公用無線網路, 網際網路, 自助式早餐, 洗衣服務, 自助式洗衣",
北投老爺酒店,"台北排名第 180 的超值住宿地點，共 1,200 家",https://www.tripadvisor.com.tw/Hotel_Review-g13806427-d7395723-Reviews-Hotel_Royal_Beitou-Beitou_Taipei.html,25.137479782104492,121.50369262695312,"NT$5,772",北投區中和街2號,4.5,台北,北投,"NT$6,067 - NT$14,303",4.5,258,https://media-cdn.tripadvisor.com/media/photo-s/0a/fa/57/f5/caption.jpg,免費停車,,"NT$6,397"
趣旅館 - 林森館,"台北排名第 181 的超值住宿地點，共 1,200 家",https://www.tripadvisor.com.tw/Hotel_Review-g13808671-d10161506-Reviews-Hotel_Fun_Linsen_Branch-Zhongshan_District_Taipei.html,25.06123924255371,121.52698516845703,"NT$1,014",林森北路487號,3.0,台北,中山區,"NT$472 - NT$2,012",4.0,114,https://media-cdn.tripadvisor.com/media/photo-s/0d/a8/cb/d6/caption.jpg,"禁菸客房, 空調設施","免費高速上網 (WiFi), 免費網際網路, 網際網路, 免費早餐, 餐廳, 禁菸飯店, 洗衣服務","NT$1,014"
Hotel Papa Whale,"台北排名第 182 的超值住宿地點，共 1,200 家",https://www.tripadvisor.com.tw/Hotel_Review-g13806951-d10592983-Reviews-Hotel_Papa_Whale-Wanhua_Taipei.html,25.046741485595703,121.5057144165039,"NT$1,061",萬華區昆明街46號,3.5,台北,萬華,"NT$1,666 - NT$5,250",3.5,443,https://media-cdn.tripadvisor.com/media/photo-s/0f/55/57/9e/caption.jpg,餐廳,,"NT$1,255"
摩莎曼拉精品旅館-台北車站館,"台北排名第 183 的超值住宿地點，共 1,200 家",https://www.tripadvisor.com.tw/Hotel_Review-g13808853-d8663905-Reviews-Moshamanla_Hotel_Main_Station-Zhongzheng_District_Taipei.html,25.04615592956543,121.51289367675781,"NT$1,108",中正區開封街一段33號,3.0,台北,中正區,"NT$1,100 - NT$2,986",3.5,325,https://media-cdn.tripadvisor.com/media/photo-s/0d/6f/a2/a4/caption.jpg,"禁菸客房, 家庭房, 空調設施, 冰箱, 平板電視","免費高速上網 (WiFi), 免費網際網路, 有健身房的健身中心, 免費早餐, 餐廳, 禁菸飯店, 洗衣服務, 自助式洗衣, 無線網路, 公用無線網路, 網際網路, 自助式早餐",
漾館時尚溫泉旅館,"台北排名第 184 的超值住宿地點，共 1,200 家",https://www.tripadvisor.com.tw/Hotel_Review-g13806427-d1743349-Reviews-Aqua_Bella_Hotel-Beitou_Taipei.html,25.13515281677246,121.50464630126953,"NT$2,698",北投區溫泉路63號,4.0,台北,北投,"NT$2,955 - NT$7,136",4.0,135,https://media-cdn.tripadvisor.com/media/photo-s/0a/6d/23/9e/hallways--v10498113.jpg,"禁菸客房, 套房, 空調設施, 冰箱","免費停車, 免費高速上網 (WiFi), 有健身房的健身中心, 浴缸, 免費早餐, 機場接送, Spa, 禮賓服務, 免費網際網路, 無線網路, 網際網路, 餐廳, 自助式早餐, 禁菸飯店, 洗衣服務, 自助式洗衣",
台北大亞帝國H,"台北排名第 185 的超值住宿地點，共 1,200 家",https://www.tripadvisor.com.tw/Hotel_Review-g13808853-d12969326-Reviews-Taipei_H_Imperial-Zhongzheng_District_Taipei.html,25.045743942260742,121.51618194580078,"NT$1,195",中正區中正區忠孝西路一段50號11樓,3.0,台北,中正區,"NT$1,383 - NT$3,364",4.0,188,https://media-cdn.tripadvisor.com/media/photo-s/11/84/f2/95/h.jpg,"禁菸客房, 家庭房","免費網際網路, 網際網路, 禁菸飯店, 洗衣服務, 自助式洗衣",
謙商旅-東門館,"台北排名第 186 的超值住宿地點，共 1,200 家",https://www.tripadvisor.com.tw/Hotel_Review-g13808853-d4419222-Reviews-Chaiin_Hotel_Dongmen-Zhongzheng_District_Taipei.html,25.03396224975586,121.52887725830078,"NT$1,678",中正區信義路二段163號3-12F,3.0,台北,中正區,"NT$1,949 - NT$4,181",4.0,242,https://media-cdn.tripadvisor.com/media/photo-s/17/8e/cb/24/caption.jpg,"禁菸客房, 空調設施, 冰箱, 平板電視","免費高速上網 (WiFi), 免費早餐, 機場接送, 提供上網服務的商務中心, 會議設施, 禮賓服務, 禁菸飯店, 乾洗服務, 免費網際網路, 無線網路, 公用無線網路, 網際網路, 餐廳, 提供早餐, 自助式早餐, 巴士接駁服務, 會議室, 洗衣服務","NT$1,678"
水美溫泉會館,"台北排名第 187 的超值住宿地點，共 1,200 家",https://www.tripadvisor.com.tw/Hotel_Review-g13806427-d582175-Reviews-SweetMe_Hotspring_Resort-Beitou_Taipei.html,25.13636589050293,121.50492095947266,"NT$2,694",光明路224號,3.5,台北,北投,"NT$3,238 - NT$5,658",3.5,309,https://media-cdn.tripadvisor.com/media/photo-s/0f/60/e2/ea/caption.jpg,免費高速上網 (WiFi),,"NT$2,986"
旅晨行旅,"台北排名第 188 的超值住宿地點，共 1,200 家",https://www.tripadvisor.com.tw/Hotel_Review-g13808853-d9741450-Reviews-RE_Change_Hotel-Zhongzheng_District_Taipei.html,25.04690170288086,121.51332092285156,"NT$2,068",中正區重慶南路一段1號2樓,2.5,台北,中正區,"NT$1,226 - NT$3,049",4.5,71,https://media-cdn.tripadvisor.com/media/photo-s/0f/3c/e5/c8/caption.jpg,免費高速上網 (WiFi),,
台北馥華南港館 ,"台北排名第 189 的超值住宿地點，共 1,200 家",https://www.tripadvisor.com.tw/Hotel_Review-g13806753-d2026524-Reviews-Taipei_Forward_Hotel_Nangang_Branch-Nangang_Taipei.html,25.059165954589844,121.6141128540039,"NT$2,597",南港區三重路23號,3.0,台北,南港,"NT$2,169 - NT$4,149",4.0,89,https://media-cdn.tripadvisor.com/media/photo-s/05/45/8a/86/caption.jpg,餐廳,,"NT$2,075"
北投春天酒店,"台北排名第 190 的超值住宿地點，共 1,200 家",https://www.tripadvisor.com.tw/Hotel_Review-g13806427-d455550-Reviews-Spring_City_Resort-Beitou_Taipei.html,25.137737274169922,121.5135269165039,"NT$2,597",北投區幽雅路18號,4.5,台北,北投,"NT$3,929 - NT$6,570",3.5,310,https://media-cdn.tripadvisor.com/media/photo-s/0a/09/15/6c/pool--v9741149.jpg,"禁菸客房, 套房, 家庭房, 空調設施, 冰箱, 平板電視","免費停車, 免費高速上網 (WiFi), 游泳池, 有健身房的健身中心, 免費早餐, 免費接駁或計程車服務, 會議設施, 會議室, 停車, 免費網際網路, 無線網路, 公用無線網路, 網際網路, 浴缸, 室外游泳池, 溫水游泳池, 餐廳, 自助式早餐, 巴士接駁服務, Spa, 禮賓服務, 禁菸飯店, 洗衣服務","NT$3,439"
維多麗亞酒店,"台北排名第 191 的超值住宿地點，共 1,200 家",https://www.tripadvisor.com.tw/Hotel_Review-g13808671-d1027802-Reviews-Grand_Victoria_Hotel-Zhongshan_District_Taipei.html,25.084503173828125,121.55886840820312,"NT$1,074",敬業四路168號,4.5,台北,中山區,"NT$4,307 - NT$6,853",4.0,202,https://media-cdn.tripadvisor.com/media/photo-s/02/d5/db/fe/caption.jpg,客房服務,,"NT$6,000"
台北愛行旅,"台北排名第 192 的超值住宿地點，共 1,200 家",https://www.tripadvisor.com.tw/Hotel_Review-g13808671-d11698293-Reviews-Hotel_I_Journey_Taipei-Zhongshan_District_Taipei.html,25.057594299316406,121.522216796875,"NT$1,074",中山區民生西路16號4樓,3.0,台北,中山區,"NT$1,352 - NT$3,143",4.5,67,https://media-cdn.tripadvisor.com/media/photo-s/0d/5c/fb/66/caption.jpg,免費高速上網 (WiFi),,
美寓,"台北排名第 193 的超值住宿地點，共 1,200 家",https://www.tripadvisor.com.tw/Hotel_Review-g13806900-d5998644-Reviews-Meistay-Songshan_Taipei.html,25.04808235168457,121.54914855957031,NT$925,松山區八德路三段2號14樓,2.5,台北,松山,"NT$1,069 - NT$1,823",4.0,74,https://media-cdn.tripadvisor.com/media/photo-s/05/4e/b1/c4/caption.jpg,"禁菸客房, 空調設施, 平板電視","免費高速上網 (WiFi), 免費網際網路, 無線網路, 網際網路, 禁菸飯店",
三德大飯店,"台北排名第 194 的超值住宿地點，共 1,200 家",https://www.tripadvisor.com.tw/Hotel_Review-g13806451-d455556-Reviews-Santos_Hotel-Datong_Taipei.html,25.064830780029297,121.51861572265625,"NT$1,818",承德路三段49號,4.0,台北,大同,"NT$2,138 - NT$6,507",4.0,522,https://media-cdn.tripadvisor.com/media/photo-s/13/db/3d/dd/santos-hotel.jpg,客房服務,,"NT$1,872"
台北天晴青年旅店,"台北排名第 195 的超值住宿地點，共 1,200 家",https://www.tripadvisor.com.tw/Hotel_Review-g13808853-d9595237-Reviews-Taipei_Sunny_Hostel-Zhongzheng_District_Taipei.html,25.042648315429688,121.51396942138672,"NT$1,455",中正區懷寧街92-2號,2.0,台北,中正區,"NT$1,477 - NT$3,772",4.5,48,https://media-cdn.tripadvisor.com/media/photo-s/0a/f1/df/98/6-people-en-suite.jpg,免費高速上網 (WiFi),,
龍山旅社,"台北排名第 196 的超值住宿地點，共 1,200 家",https://www.tripadvisor.com.tw/Hotel_Review-g13806951-d7226053-Reviews-Longshan_Inn-Wanhua_Taipei.html,25.03761863708496,121.49987030029297,"NT$1,094",萬華區西園路一段125巷13-1號,3.0,台北,萬華,"NT$1,226 - NT$1,980",4.0,71,https://media-cdn.tripadvisor.com/media/photo-s/11/9e/dd/c9/caption.jpg,"禁菸客房, 空調設施, 冰箱","免費高速上網 (WiFi), 免費網際網路, 無線網路, 網際網路, 禁菸飯店",
禾順商旅,"台北排名第 197 的超值住宿地點，共 1,200 家",https://www.tripadvisor.com.tw/Hotel_Review-g13806951-d7619058-Reviews-YOUR_Hotel-Wanhua_Taipei.html,25.036849975585938,121.49755859375,"NT$1,481",萬華區廣州街247號廣州街夜市內,3.0,台北,萬華,"NT$1,635 - NT$3,709",4.0,71,https://media-cdn.tripadvisor.com/media/photo-s/15/8c/bc/f5/caption.jpg,"禁菸客房, 家庭房, 空調設施, 冰箱, 平板電視","免費停車, 免費高速上網 (WiFi), 餐廳, 機場接送, 提供上網服務的商務中心, 禮賓服務, 禁菸飯店, 自助式洗衣, 免費網際網路, 無線網路, 公用無線網路, 網際網路, 提供早餐",
洛碁南京大飯店,"台北排名第 198 的超值住宿地點，共 1,200 家",https://www.tripadvisor.com.tw/Hotel_Review-g13808671-d9775937-Reviews-Green_World_Hotel_Grand_Nanjing-Zhongshan_District_Taipei.html,25.051849365234375,121.53693389892578,"NT$2,734",南京東路三段8號 南京建國路口,4.0,台北,中山區,"NT$2,420 - NT$4,307",4.0,134,https://media-cdn.tripadvisor.com/media/photo-s/0a/25/aa/c5/getlstd-property-photo.jpg,免費高速上網 (WiFi),,
首都大飯店,"台北排名第 199 的超值住宿地點，共 1,200 家",https://www.tripadvisor.com.tw/Hotel_Review-g13808671-d1527776-Reviews-Capital_Hotel-Zhongshan_District_Taipei.html,25.05268096923828,121.53704071044922,"NT$2,734",建國北路二段7號,4.0,台北,中山區,"NT$3,175 - NT$6,224",4.0,195,https://media-cdn.tripadvisor.com/media/photo-s/01/52/7b/8c/caption.jpg,"禁菸客房, 套房, 空調設施, 客房服務, 保險箱, 平板電視","免費停車, 免費高速上網 (WiFi), 有健身房的健身中心, 免費早餐, 提供上網服務的商務中心, 會議設施, Spa, 禮賓服務, 停車, 免費網際網路, 無線網路, 網際網路, 酒吧/酒廊, 餐廳, 自助式早餐, 宴會廳, 會議室, 禁菸飯店, 乾洗服務, 洗衣服務","NT$5,065"
正旅館,"台北排名第 200 的超值住宿地點，共 1,200 家",https://www.tripadvisor.com.tw/Hotel_Review-g13808853-d7121446-Reviews-Just_Inn_Taipei_Station-Zhongzheng_District_Taipei.html,25.0468692779541,121.51338958740234,"NT$1,110",中正區重慶南路一段1號3樓,3.0,台北,中正區,"NT$1,289 - NT$2,986",4.0,93,https://media-cdn.tripadvisor.com/media/photo-s/06/bf/14/00/justinn-taipei.jpg,"禁菸客房, 套房, 空調設施, 微波爐","免費高速上網 (WiFi), 免費網際網路, 無線網路, 公用無線網路, 網際網路, 禮賓服務, 禁菸飯店",
梅樓商務驛站,"台北排名第 201 的超值住宿地點，共 1,200 家",https://www.tripadvisor.com.tw/Hotel_Review-g13806451-d5962333-Reviews-Main_Inn_Taipei-Datong_Taipei.html,25.04964828491211,121.5144271850586,"NT$2,190",鄭州路21巷12號 2樓,2.5,台北,大同,"NT$472 - NT$2,043",4.0,145,https://media-cdn.tripadvisor.com/media/photo-s/05/86/d1/2a/main-inn-taipei.jpg,免費高速上網 (WiFi),,
合星青年旅館,"台北排名第 202 的超值住宿地點，共 1,200 家",https://www.tripadvisor.com.tw/Hotel_Review-g13811269-d13132684-Reviews-Star_Hostel_Taipei_East-Da_an_Taipei.html,25.04202651977539,121.54972839355469,"NT$1,678",大安區忠孝東路四段147巷5號3樓,2.0,台北,大安,"NT$786 - NT$4,055",5.0,23,https://media-cdn.tripadvisor.com/media/photo-s/11/4a/8c/04/caption.jpg,空調設施,免費高速上網 (WiFi),
公寓十樓,"台北排名第 203 的超值住宿地點，共 1,200 家",https://www.tripadvisor.com.tw/Hotel_Review-g13806451-d4172758-Reviews-Apartment_10F-Datong_Taipei.html,25.049758911132812,121.513427734375,"NT$1,160",重慶北路一段一號10樓,,台北,大同,"NT$597 - NT$2,641",5.0,80,https://media-cdn.tripadvisor.com/media/photo-s/0d/91/9f/fe/apartment10f-taipei-main.jpg,"禁菸客房, 空調設施, 小廚房","免費高速上網 (WiFi), 免費網際網路, 無線網路, 網際網路, 禁菸飯店, 自助式洗衣",
日光拾玖,"台北排名第 204 的超值住宿地點，共 1,200 家",https://www.tripadvisor.com.tw/Hotel_Review-g13808853-d1958180-Reviews-Sky19_Hotel-Zhongzheng_District_Taipei.html,25.046113967895508,121.51554107666016,"NT$2,165",忠孝西路一段50號 19樓,,台北,中正區,"NT$2,200 - NT$5,218",4.0,125,https://media-cdn.tripadvisor.com/media/photo-s/02/66/b9/68/filename-p1100670-jpg.jpg,,,
豪麗大飯店,"台北排名第 205 的超值住宿地點，共 1,200 家",https://www.tripadvisor.com.tw/Hotel_Review-g13811269-d633536-Reviews-Royal_Palace_Hotel-Da_an_Taipei.html,25.04103660583496,121.5462875366211,"NT$2,338",大安路一段81-1號,3.5,台北,大安,"NT$2,609 - NT$4,307",4.0,222,https://media-cdn.tripadvisor.com/media/photo-s/05/1b/81/bc/triple-room.jpg,"禁菸客房, 套房, 家庭房, 空調設施, 平板電視","免費高速上網 (WiFi), 有健身房的健身中心, 餐廳, 提供上網服務的商務中心, 禮賓服務, 禁菸飯店, 乾洗服務, 洗衣服務, 免費網際網路, 無線網路, 網際網路, 自助式早餐, 自助式洗衣",
天閣酒店 - 台北長安,"台北排名第 206 的超值住宿地點，共 1,200 家",https://www.tripadvisor.com.tw/Hotel_Review-g13808671-d3779703-Reviews-THE_Tango_Taipei_ChangAn-Zhongshan_District_Taipei.html,25.04964256286621,121.52469635009766,"NT$2,212",中山區林森北路80號,4.0,台北,中山區,"NT$3,458 - NT$6,916",4.0,136,https://media-cdn.tripadvisor.com/media/photo-s/0f/e6/67/0b/wonderful-twin--v16564557.jpg,免費停車,,"NT$3,505"
家美飯店,"台北排名第 207 的超值住宿地點，共 1,200 家",https://www.tripadvisor.com.tw/Hotel_Review-g13808853-d505080-Reviews-Welcome_Hotel-Zhongzheng_District_Taipei.html,25.046350479125977,121.5243148803711,"NT$2,212",北平東路12號,3.0,台北,中正區,"NT$2,515 - NT$4,401",4.0,162,https://media-cdn.tripadvisor.com/media/photo-s/01/26/11/4a/welcome-hotel-like-the.jpg,"禁菸客房, 空調設施, 客房服務","免費高速上網 (WiFi), 免費網際網路, 無線網路, 餐廳, 自助式早餐, 禁菸飯店, 洗衣服務, 自助式洗衣, 網際網路",
長富時尚旅店,"台北排名第 208 的超值住宿地點，共 1,200 家",https://www.tripadvisor.com.tw/Hotel_Review-g13808671-d3807478-Reviews-Homey_House-Zhongshan_District_Taipei.html,25.054967880249023,121.52594757080078,,長春路56號,3.0,台北,中山區,"NT$1,918 - NT$2,955",4.5,106,https://media-cdn.tripadvisor.com/media/photo-s/14/eb/d7/d2/getlstd-property-photo.jpg,免費高速上網 (WiFi),,"NT$1,825"
台北摩莎精品旅店,"台北排名第 209 的超值住宿地點，共 1,200 家",https://www.tripadvisor.com.tw/Hotel_Review-g13808853-d10205188-Reviews-Taipei_Mosha_Hotel_Main_Station-Zhongzheng_District_Taipei.html,25.04493522644043,121.51289367675781,"NT$1,281",中正區漢口街一段64号 中正区,3.5,台北,中正區,"NT$1,477 - NT$3,364",3.5,433,https://media-cdn.tripadvisor.com/media/photo-s/0b/a1/59/65/double.jpg,餐廳,,"NT$1,281"
洛碁中華大飯店,"台北排名第 210 的超值住宿地點，共 1,200 家",https://www.tripadvisor.com.tw/Hotel_Review-g13808853-d6105600-Reviews-Green_World_Hotel_Zhonghua-Zhongzheng_District_Taipei.html,25.04496192932129,121.50932312011719,,中正區中華路一段41號13樓,3.5,台北,中正區,"NT$2,075 - NT$4,935",4.0,390,https://media-cdn.tripadvisor.com/media/photo-s/06/b6/f5/aa/caption.jpg,免費高速上網 (WiFi),,"NT$1,900"
晶華酒店,"台北排名第 211 的超值住宿地點，共 1,200 家",https://www.tripadvisor.com.tw/Hotel_Review-g13808671-d301429-Reviews-Regent_Taipei-Zhongshan_District_Taipei.html,25.054140090942383,121.52440643310547,"NT$6,126",中山區中山北路二段39巷3號,5.0,台北,中山區,"NT$6,004 - NT$11,599",4.5,3176,https://media-cdn.tripadvisor.com/media/photo-s/18/ea/1f/d1/regent-taipei.jpg,"禁菸客房, 套房, 家庭房, 空調設施, 房務, 私人陽台, 迷你吧, 平板電視, 客房服務, 保險箱, 冰箱","免費停車, 免費高速上網 (WiFi), 游泳池, 有健身房的健身中心, 酒吧/酒廊, 機場接送, 提供上網服務的商務中心, 會議設施, 停車, 免費網際網路, 無線網路, 公用無線網路, 網際網路, 浴缸, 桑拿, 屋頂游泳池, 室外游泳池, 溫水游泳池, 餐廳, 提供早餐, 自助式早餐, 宴會廳, 會議室, Spa, 禮賓服務, 禁菸飯店, 管家服務, 乾洗服務, 洗衣服務","NT$1,990"
德立莊酒店,"台北排名第 212 的超值住宿地點，共 1,200 家",https://www.tripadvisor.com.tw/Hotel_Review-g13808853-d8181364-Reviews-Hotel_Midtown_Richardson-Zhongzheng_District_Taipei.html,25.042667388916016,121.50941467285156,"NT$1,597",中正區秀山街4號(衡陽路99號),4.0,台北,中正區,"NT$2,263 - NT$6,067",3.5,884,https://media-cdn.tripadvisor.com/media/photo-s/09/ff/a9/4a/caption.jpg,"禁菸客房, 套房, 家庭房, 空調設施, 保險箱, 冰箱, 平板電視","免費高速上網 (WiFi), 餐廳, 機場接送, 會議室, 禮賓服務, 禁菸飯店, 乾洗服務, 洗衣服務, 免費網際網路, 無線網路, 公用無線網路, 網際網路, 提供早餐, 自助式洗衣","NT$6,933"
怡品商旅,"台北排名第 213 的超值住宿地點，共 1,200 家",https://www.tripadvisor.com.tw/Hotel_Review-g13811269-d8621665-Reviews-Eastin_Taipei_Hotel-Da_an_Taipei.html,25.041717529296875,121.54781341552734,"NT$1,961",忠孝東路四段87號14樓 MRT Zhongxiao Fuxing station,3.5,台北,大安,"NT$1,289 - NT$3,521",4.0,96,https://media-cdn.tripadvisor.com/media/photo-s/12/a7/d8/3b/supreme-family-room-r212.jpg,免費高速上網 (WiFi),,"NT$1,697"
台北愛行旅,"台北排名第 214 的超值住宿地點，共 1,200 家",https://www.tripadvisor.com.tw/Hotel_Review-g13808671-d11698293-Reviews-Hotel_I_Journey_Taipei-Zhongshan_District_Taipei.html,25.057594299316406,121.522216796875,"NT$1,074",中山區民生西路16號4樓,3.0,台北,中山區,"NT$1,352 - NT$3,143",4.5,67,https://media-cdn.tripadvisor.com/media/photo-s/0d/5c/fb/66/caption.jpg,免費高速上網 (WiFi),,"NT$1,974"
台北馥華南港館 ,"台北排名第 215 的超值住宿地點，共 1,200 家",https://www.tripadvisor.com.tw/Hotel_Review-g13806753-d2026524-Reviews-Taipei_Forward_Hotel_Nangang_Branch-Nangang_Taipei.html,25.059165954589844,121.6141128540039,"NT$2,075",南港區三重路23號,3.0,台北,南港,"NT$2,169 - NT$4,149",4.0,89,https://media-cdn.tripadvisor.com/media/photo-s/05/45/8a/86/caption.jpg,"禁菸客房, 套房, 空調設施","免費停車, 免費高速上網 (WiFi), 有健身房的健身中心, 免費早餐, 提供上網服務的商務中心, 宴會廳, 禁菸飯店, 洗衣服務, 免費網際網路, 無線網路, 公用無線網路, 網際網路, 餐廳, 自助式洗衣",
漾館時尚溫泉旅館,"台北排名第 216 的超值住宿地點，共 1,200 家",https://www.tripadvisor.com.tw/Hotel_Review-g13806427-d1743349-Reviews-Aqua_Bella_Hotel-Beitou_Taipei.html,25.13515281677246,121.50464630126953,"NT$2,698",北投區溫泉路63號,4.0,台北,北投,"NT$2,955 - NT$7,136",4.0,135,https://media-cdn.tripadvisor.com/media/photo-s/0a/6d/23/9e/hallways--v10498113.jpg,"禁菸客房, 套房, 空調設施, 冰箱","免費停車, 免費高速上網 (WiFi), 有健身房的健身中心, 浴缸, 免費早餐, 機場接送, Spa, 禮賓服務, 免費網際網路, 無線網路, 網際網路, 餐廳, 自助式早餐, 禁菸飯店, 洗衣服務, 自助式洗衣",
力麗哲園商旅-台北,"台北排名第 217 的超值住宿地點，共 1,200 家",https://www.tripadvisor.com.tw/Hotel_Review-g13806900-d1191398-Reviews-Lealea_Garden_Hotels_Taipei-Songshan_Taipei.html,25.048837661743164,121.5641860961914,"NT$2,698",松山區八德路四段213號,3.5,台北,松山,"NT$1,918 - NT$4,464",4.0,145,https://media-cdn.tripadvisor.com/media/photo-s/0e/54/a8/a8/caption.jpg,免費高速上網 (WiFi),,"NT$9,000"
大來大飯店,"台北排名第 218 的超值住宿地點，共 1,200 家",https://www.tripadvisor.com.tw/Hotel_Review-g13806900-d505600-Reviews-Delight_Hotel-Songshan_Taipei.html,25.0544490814209,121.54496002197266,"NT$1,932",長春路432號,3.0,台北,松山,"NT$2,043 - NT$4,149",4.0,150,https://media-cdn.tripadvisor.com/media/photo-s/0c/ff/22/bf/street--v14043128.jpg,"禁菸客房, 空調設施, 平板電視","免費停車, 免費高速上網 (WiFi), 有健身房的健身中心, 餐廳, 提供上網服務的商務中心, 禁菸飯店, 乾洗服務, 洗衣服務, 免費網際網路, 無線網路, 網際網路, 自助式早餐, 自助式洗衣",
美寓,"台北排名第 219 的超值住宿地點，共 1,200 家",https://www.tripadvisor.com.tw/Hotel_Review-g13806900-d5998644-Reviews-Meistay-Songshan_Taipei.html,25.04808235168457,121.54914855957031,NT$925,松山區八德路三段2號14樓,2.5,台北,松山,"NT$1,069 - NT$1,823",4.0,74,https://media-cdn.tripadvisor.com/media/photo-s/05/4e/b1/c4/caption.jpg,"禁菸客房, 空調設施, 平板電視","免費高速上網 (WiFi), 免費網際網路, 無線網路, 網際網路, 禁菸飯店",
詩漫精品旅館,"台北排名第 220 的超值住宿地點，共 1,200 家",https://www.tripadvisor.com.tw/Hotel_Review-g13808853-d7748969-Reviews-Smile_Inn-Zhongzheng_District_Taipei.html,25.04598617553711,121.51508331298828,"NT$1,338",中正區館前路8號6樓,2.5,台北,中正區,"NT$1,509 - NT$3,238",4.0,79,https://media-cdn.tripadvisor.com/media/photo-s/0d/fe/c9/a5/smile-inn.jpg,"禁菸客房, 空調設施, 平板電視","免費高速上網 (WiFi), 免費網際網路, 網際網路, 禁菸飯店",
俐仕商務飯店,"台北排名第 221 的超值住宿地點，共 1,200 家",https://www.tripadvisor.com.tw/Hotel_Review-g13808671-d808116-Reviews-Liz_Hotel-Zhongshan_District_Taipei.html,25.05014991760254,121.52572631835938,"NT$1,195",中山區林森北路107巷16號,3.0,台北,中山區,"NT$1,289 - NT$3,175",4.0,99,https://media-cdn.tripadvisor.com/media/photo-s/08/31/d3/58/caption.jpg,"禁菸客房, 套房, 空調設施, 冰箱, 平板電視","免費高速上網 (WiFi), 免費網際網路, 無線網路, 公用無線網路, 免費早餐, 機場接送, 禁菸飯店, 自助式洗衣, 網際網路",
宣美精品飯店,"台北排名第 222 的超值住宿地點，共 1,200 家",https://www.tripadvisor.com.tw/Hotel_Review-g13808671-d662177-Reviews-Beauty_Hotels_Taipei_Hsuanmei_Boutique-Zhongshan_District_Taipei.html,25.048057556152344,121.53663635253906,"NT$1,541",中山區建國北路一段52號,3.5,台北,中山區,"NT$1,697 - NT$3,552",4.0,191,https://media-cdn.tripadvisor.com/media/photo-s/02/ec/16/45/caption.jpg,"禁菸客房, 套房, 家庭房, 空調設施, 迷你吧, 冰箱, 平板電視","免費停車, 免費高速上網 (WiFi), 餐廳, 會議室, 禮賓服務, 禁菸飯店, 乾洗服務, 洗衣服務, 免費網際網路, 無線網路, 公用無線網路, 網際網路, 自助式早餐, 自助式洗衣",
首都大飯店大直館,"台北排名第 223 的超值住宿地點，共 1,200 家",https://www.tripadvisor.com.tw/Hotel_Review-g13808671-d1577080-Reviews-Capital_Hotel_Dazhi-Zhongshan_District_Taipei.html,25.08152198791504,121.56076049804688,"NT$1,541",中山区植福路288號,4.0,台北,中山區,"NT$2,515 - NT$4,621",4.0,88,https://media-cdn.tripadvisor.com/media/photo-s/04/67/66/5b/caption.jpg,客房服務,,"NT$1,450"
舞衣新宿中山館,"台北排名第 224 的超值住宿地點，共 1,200 家",https://www.tripadvisor.com.tw/Hotel_Review-g13808671-d1524421-Reviews-Mai_Hotel_Zhong_Shan_Branch-Zhongshan_District_Taipei.html,25.050752639770508,121.52362823486328,"NT$2,387",中山區中山北路一段105巷15號,3.0,台北,中山區,"NT$2,106 - NT$3,961",4.0,138,https://media-cdn.tripadvisor.com/media/photo-s/0e/d0/de/66/caption.jpg,"禁菸客房, 空調設施, 客房服務, 冰箱","免費高速上網 (WiFi), 免費網際網路, 酒吧/酒廊, 餐廳, 機場接送, 禁菸飯店, 乾洗服務, 洗衣服務, 無線網路, 網際網路, 巴士接駁服務",
北門文旅,"台北排名第 225 的超值住宿地點，共 1,200 家",https://www.tripadvisor.com.tw/Hotel_Review-g13806451-d8128255-Reviews-Bayman_Hotel-Datong_Taipei.html,25.051671981811523,121.51495361328125,"NT$1,161",長安西路145巷3號,3.0,台北,大同,"NT$1,415 - NT$4,967",4.5,60,https://media-cdn.tripadvisor.com/media/photo-s/0c/71/5f/76/caption.jpg,免費高速上網 (WiFi),,
香樹花園酒店,"台北排名第 226 的超值住宿地點，共 1,200 家",https://www.tripadvisor.com.tw/Hotel_Review-g13808671-d2543756-Reviews-S_aura_Hotel-Zhongshan_District_Taipei.html,25.084211349487305,121.56065368652344,"NT$3,385",中山區堤頂大道二段566號,4.0,台北,中山區,"NT$3,835 - NT$5,187",4.5,110,https://media-cdn.tripadvisor.com/media/photo-s/10/1c/d7/ae/1501682174887-largejpg.jpg,"禁菸客房, 套房, 家庭房, 空調設施, 私人陽台, 客房服務, 迷你吧, 冰箱","免費停車, 免費高速上網 (WiFi), 游泳池, 浴缸, 免費早餐, 機場接送, 提供上網服務的商務中心, 會議設施, 免費網際網路, 無線網路, 網際網路, 酒吧/酒廊, 餐廳, 提供早餐, 自助式早餐, 宴會廳, 會議室, Spa, 禁菸飯店, 乾洗服務, 洗衣服務","NT$2,387"
旅晨行旅,"台北排名第 227 的超值住宿地點，共 1,200 家",https://www.tripadvisor.com.tw/Hotel_Review-g13808853-d9741450-Reviews-RE_Change_Hotel-Zhongzheng_District_Taipei.html,25.04690170288086,121.51332092285156,"NT$1,241",中正區重慶南路一段1號2樓,2.5,台北,中正區,"NT$1,226 - NT$3,049",4.5,71,https://media-cdn.tripadvisor.com/media/photo-s/0f/3c/e5/c8/caption.jpg,"禁菸客房, 套房, 空調設施","免費高速上網 (WiFi), 免費網際網路, 網際網路, 禮賓服務, 禁菸飯店",
陽光士林珮柏旅館,"台北排名第 228 的超值住宿地點，共 1,200 家",https://www.tripadvisor.com.tw/Hotel_Review-g13806879-d5969422-Reviews-Papersun_Hotel-Shilin_Taipei.html,25.09256362915039,121.52305603027344,"NT$2,321",士林區福德路48巷8號,3.5,台北,士林,"NT$2,578 - NT$4,181",4.5,52,https://media-cdn.tripadvisor.com/media/photo-s/16/bc/57/fe/caption.jpg,"禁菸客房, 套房, 家庭房, 空調設施, 迷你吧, 冰箱","免費高速上網 (WiFi), 免費網際網路, 提供早餐, 提供上網服務的商務中心, 會議設施, 會議室, 禁菸飯店, 自助式洗衣, 無線網路, 公用無線網路, 網際網路","NT$3,565"
喬合大飯店,"台北排名第 229 的超值住宿地點，共 1,200 家",https://www.tripadvisor.com.tw/Hotel_Review-g13811269-d1742882-Reviews-Deja_Vu_Hotel-Da_an_Taipei.html,25.042823791503906,121.54337310791016,"NT$1,439",復興南路一段136號,3.0,台北,大安,"NT$1,666 - NT$4,652",4.0,169,https://media-cdn.tripadvisor.com/media/photo-s/04/b8/18/66/caption.jpg,"禁菸客房, 空調設施, 迷你吧","免費停車, 免費高速上網 (WiFi), 免費早餐, 機場接送, 提供上網服務的商務中心, 會議室, 禁菸飯店, 乾洗服務, 免費網際網路, 無線網路, 網際網路, 餐廳, 提供早餐, 自助式早餐, 洗衣服務, 自助式洗衣",
你好台北,"台北排名第 230 的超值住宿地點，共 1,200 家",https://www.tripadvisor.com.tw/Hotel_Review-g13811269-d8706688-Reviews-NiHao_Cafe_Hotel-Da_an_Taipei.html,25.03383445739746,121.54229736328125,"NT$1,439","信義路三段147巷5弄4號 Da'an District, 10658 Taipei, Taiwan",3.0,台北,大安,"NT$2,232 - NT$5,407",4.5,42,https://media-cdn.tripadvisor.com/media/photo-s/11/97/ac/69/caption.jpg,"禁菸客房, 套房, 家庭房, 空調設施","免費高速上網 (WiFi), 免費網際網路, 餐廳, 提供早餐, 禮賓服務, 禁菸飯店, 乾洗服務, 洗衣服務, 無線網路, 網際網路",
